ID,Name,Address,Latitude,Longitude,Opening Hours,Types,Rating,User Ratings Total,Stay Time,Delay Time,Cost
ChIJ0atM70kYQjERt8DDC2MBtX4,다낭현지교회,"190 Ông Ích Khiêm, Tân Chính, Thanh Khê, Đà Nẵng 550000, Vietnam",16.0710393,108.2129536,,"['church', 'tourist_attraction', 'place_of_worship', 'point_of_interest', 'establishment']",4.9,57,30,15,0
ChIJ0fjQ1rIZQjERFBYA1PL9CZI,Green Dragon,"K 25 Điện Biên Phủ, Thạc Gián, Thanh Khê, Đà Nẵng 550000, Vietnam",16.064983,108.2047977,,"['premise', 'amusement_park', 'point_of_interest', 'establishment']",,,,,
ChIJ13MshlIYQjERM4sqFu8lvyA,Ribo Coffee,"05 Thái Thị Bôi, Chính Gián, Thanh Khê, Đà Nẵng 550000, Vietnam",16.0682715,108.2011952,"['Monday: 6:30\u202fAM\u2009–\u200910:30\u202fPM', 'Tuesday: 6:30\u202fAM\u2009–\u200910:30\u202fPM', 'Wednesday: 6:30\u202fAM\u2009–\u200910:30\u202fPM', 'Thursday: 6:30\u202fAM\u2009–\u200910:30\u202fPM', 'Friday: 6:30\u202fAM\u2009–\u200910:30\u202fPM', 'Saturday: 6:30\u202fAM\u2009–\u200910:30\u202fPM', 'Sunday: 6:30\u202fAM\u2009–\u200910:30\u202fPM']","['cafe', 'point_of_interest', 'food', 'establishment']",4.1,306,,,
ChIJ14kOf8kZQjERrdrrQPpiZKA,Mì Quảng Thi,"251 Hoàng Diệu, Nam Dương, Hải Châu, Đà Nẵng 550000, Vietnam",16.0585457,108.2172243,"['Monday: 6:00\u202fAM\u2009–\u20091:29\u202fPM, 4:00\u2009–\u20099:00\u202fPM', 'Tuesday: 6:00\u202fAM\u2009–\u20091:29\u202fPM, 4:00\u2009–\u20099:00\u202fPM', 'Wednesday: 6:00\u202fAM\u2009–\u20091:29\u202fPM, 4:00\u2009–\u20099:00\u202fPM', 'Thursday: 6:00\u202fAM\u2009–\u20091:29\u202fPM, 4:00\u2009–\u20099:00\u202fPM', 'Friday: 6:00\u202fAM\u2009–\u20091:29\u202fPM, 4:00\u2009–\u20099:00\u202fPM', 'Saturday: 6:00\u202fAM\u2009–\u20091:29\u202fPM, 4:00\u2009–\u20099:00\u202fPM', 'Sunday: 6:00\u202fAM\u2009–\u20091:29\u202fPM, 4:00\u2009–\u20099:00\u202fPM']","['restaurant', 'point_of_interest', 'food', 'establishment']",4.3,311,,,
ChIJ14q9o8gZQjERwrm5NWfWlVg,Công viên Co.Opmart,"K478 Điện Biên Phủ, Thanh Khê Đông, Thanh Khê, Đà Nẵng 550000, Vietnam",16.0663223,108.1869999,,"['park', 'point_of_interest', 'establishment']",,,,,
ChIJ15vooCoZQjER0nAbGjReVXo,Quán Ăn Cô Triều Đại Lộc,"216 Âu Cơ, Hoà Khánh Bắc, Liên Chiểu, Đà Nẵng 550000, Vietnam",16.0707348,108.144132,,"['restaurant', 'point_of_interest', 'food', 'establishment']",5,1,,,
ChIJ22t6tSYZQjER2vqQjMqhnsI,Heo Quay Ông Tỵ,"538 Trần Cao Vân, Xuân Hà, Thanh Khê, Đà Nẵng 550000, Vietnam",16.0713129,108.1943244,,"['tourist_attraction', 'point_of_interest', 'establishment']",5,2,,,
ChIJ23qaguI9QjER93d6QKavQns,Cây Đa Ngàn Năm,"Bán đảo, Thọ Quang, Sơn Trà, Đà Nẵng, Vietnam",16.12255,108.3317036,,"['tourist_attraction', 'point_of_interest', 'establishment']",4.7,317,,,
ChIJ298PNrcZQjER7Aib8uadVds,Cà Phê Amigo,"23 Nguyễn Hữu Thọ, Hòa Thuận Nam, Hải Châu, Đà Nẵng 550000, Vietnam",16.0554667,108.2085937,,"['cafe', 'food', 'point_of_interest', 'establishment']",5,1,,,
ChIJ2WelwJkjQjERi66tRfSP-5o,Cà phê Phương Nguyên,"Lữ đoàn, 161 cảng tiên sa, Thọ Quang, TP, Đà Nẵng, Vietnam",16.121721,108.2193993,"['Monday: Open 24 hours', 'Tuesday: Open 24 hours', 'Wednesday: Open 24 hours', 'Thursday: Open 24 hours', 'Friday: Open 24 hours', 'Saturday: Open 24 hours', 'Sunday: Open 24 hours']","['cafe', 'store', 'food', 'point_of_interest', 'establishment']",,,,,
ChIJ2aT3UqMXQjER_rVaqCoyyWU,Chùa Linh Ứng,"Vườn Lâm Tỳ Ni, Hoàng Sa, Thọ Quang, Sơn Trà, Đà Nẵng, Vietnam",16.1002615,108.2777474,"['Monday: Open 24 hours', 'Tuesday: Open 24 hours', 'Wednesday: Open 24 hours', 'Thursday: Open 24 hours', 'Friday: Open 24 hours', 'Saturday: Open 24 hours', 'Sunday: Open 24 hours']","['place_of_worship', 'point_of_interest', 'establishment']",4.7,1785,,,
ChIJ2beCscEZQjER1eMQXxVlJZg,Mì Quảng Giao Thủy,"20 Lê Thanh Nghị, Hoà Cường Bắc, Hải Châu, Đà Nẵng 550000, Vietnam",16.0436901,108.2173205,"['Monday: 6:00\u202fAM\u2009–\u20099:00\u202fPM', 'Tuesday: 6:00\u202fAM\u2009–\u20099:00\u202fPM', 'Wednesday: 6:00\u202fAM\u2009–\u20099:00\u202fPM', 'Thursday: 6:00\u202fAM\u2009–\u20099:00\u202fPM', 'Friday: 6:00\u202fAM\u2009–\u20099:00\u202fPM', 'Saturday: 6:00\u202fAM\u2009–\u20099:00\u202fPM', 'Sunday: 6:00\u202fAM\u2009–\u20099:00\u202fPM']","['restaurant', 'food', 'point_of_interest', 'establishment']",4,103,,,
ChIJ2dQQiA72QTERnSn0QjUDJiw,Toc Tien Waterfall station,"22GJ+QCF, Hòa Ninh, Hòa Vang, Da Nang, Vietnam",16.02693,108.0310383,,"['amusement_park', 'point_of_interest', 'establishment']",4.4,72,,,
ChIJ2eEwIrEZQjERmUcku_xN6pw,My Quang Ba Mua,"95A Nguyễn Tri Phương, Thạc Gián, Thanh Khê, Đà Nẵng 550000, Vietnam",16.0565752,108.208438,"['Monday: 7:00\u202fAM\u2009–\u200910:00\u202fPM', 'Tuesday: 7:00\u202fAM\u2009–\u200910:00\u202fPM', 'Wednesday: 7:00\u202fAM\u2009–\u200910:00\u202fPM', 'Thursday: 7:00\u202fAM\u2009–\u200910:00\u202fPM', 'Friday: 7:00\u202fAM\u2009–\u200910:00\u202fPM', 'Saturday: 7:00\u202fAM\u2009–\u200910:00\u202fPM', 'Sunday: 7:00\u202fAM\u2009–\u200910:00\u202fPM']","['restaurant', 'store', 'point_of_interest', 'food', 'establishment']",3.9,1340,,,
ChIJ2x1ff08lQjERmIQ97JC4lVM,Hòn Sơn Chà,"Hòn Cơn Chà, huyện, 6684+436, Hoà Hiệp Bắc, Liên Chiểu, Thừa Thiên Huế, Vietnam",16.2152884,108.205132,"['Monday: Open 24 hours', 'Tuesday: Open 24 hours', 'Wednesday: Open 24 hours', 'Thursday: Open 24 hours', 'Friday: Open 24 hours', 'Saturday: Open 24 hours', 'Sunday: Open 24 hours']","['park', 'point_of_interest', 'establishment']",5,3,,,
ChIJ2xcQYrsiQjER-0Osvqk2SwA,French & Spanish Soldiers Cemetery,"46CC+X26, Yết Kiêu, Thọ Quang, Sơn Trà, Đà Nẵng, Vietnam",16.1224211,108.2200295,"['Monday: Open 24 hours', 'Tuesday: Open 24 hours', 'Wednesday: Open 24 hours', 'Thursday: Open 24 hours', 'Friday: Open 24 hours', 'Saturday: Open 24 hours', 'Sunday: Open 24 hours']","['tourist_attraction', 'cemetery', 'point_of_interest', 'establishment']",4.1,14,,,
ChIJ2y5L4dQNQjERxeSLc68fbrw,The Marble Mountains,"81 Huyền Trân Công Chúa, Hoà Hải, Ngũ Hành Sơn, Đà Nẵng 550000, Vietnam",16.0034756,108.2645803,"['Monday: 7:00\u202fAM\u2009–\u20095:00\u202fPM', 'Tuesday: 7:00\u202fAM\u2009–\u20095:00\u202fPM', 'Wednesday: 7:00\u202fAM\u2009–\u20095:00\u202fPM', 'Thursday: 7:00\u202fAM\u2009–\u20095:00\u202fPM', 'Friday: 7:00\u202fAM\u2009–\u20095:00\u202fPM', 'Saturday: 7:00\u202fAM\u2009–\u20095:00\u202fPM', 'Sunday: 7:00\u202fAM\u2009–\u20095:00\u202fPM']","['tourist_attraction', 'point_of_interest', 'establishment']",4.3,20715,,,
ChIJ3S-Eo0sYQjERo9MhApUI4WQ,Nhà thờ Chính Trạch,"68 Hoàng Hoa Thám, Vĩnh Trung, Thanh Khê, Đà Nẵng 550000, Vietnam",16.0683525,108.2097883,,"['church', 'place_of_worship', 'point_of_interest', 'establishment']",4.7,35,,,
ChIJ3VE3RBkZQjERDQVMz_I5hb4,KEN KEN,"thôn tây an, 3649+Q6P, Bình Hiên, Hải Châu, Đà Nẵng 550000, Vietnam",16.056951,108.2180736,,"['park', 'point_of_interest', 'establishment']",,,,,
ChIJ3cVClWEZQjER_gdKDyG2Q30,Da Nang Love Bridge,"367H+8R9, Đ. Trần Hưng Đạo, An Hải, Sơn Trà, Đà Nẵng 550000, Vietnam",16.0632799,108.2296041,"['Monday: Open 24 hours', 'Tuesday: Open 24 hours', 'Wednesday: Open 24 hours', 'Thursday: Open 24 hours', 'Friday: Open 24 hours', 'Saturday: Open 24 hours', 'Sunday: Open 24 hours']","['tourist_attraction', 'point_of_interest', 'establishment']",4.5,1867,,,
ChIJ3wWzXUQZQjERn7kXXlnnRSo,Ngã ba Bạch Đằng,"26RF+W9J, Bạch Đằng, Hoà Cường Bắc, Hải Châu, Đà Nẵng 550000, Vietnam",16.0423338,108.2233931,,"['park', 'point_of_interest', 'establishment']",5,1,,,
ChIJ4QBQgowZQjERs200POAfAZs,Tượng Cá Chép Hóa Rồng,"Đ. Trần Hưng Đạo, An Hải, Sơn Trà, Đà Nẵng 550000, Vietnam",16.06291,108.229815,"['Monday: Open 24 hours', 'Tuesday: Open 24 hours', 'Wednesday: Open 24 hours', 'Thursday: Open 24 hours', 'Friday: Open 24 hours', 'Saturday: Open 24 hours', 'Sunday: Open 24 hours']","['tourist_attraction', 'point_of_interest', 'establishment']",4.6,155,,,
ChIJ4TzoziwYQjER8Wp_tOG1pYA,DHC Marina,"367H+PW4, Đ. Trần Hưng Đạo, An Hải Trung, Sơn Trà, Đà Nẵng 550000, Vietnam",16.0642548,108.2298186,"['Monday: Open 24 hours', 'Tuesday: Open 24 hours', 'Wednesday: Open 24 hours', 'Thursday: Open 24 hours', 'Friday: Open 24 hours', 'Saturday: Open 24 hours', 'Sunday: Open 24 hours']","['tourist_attraction', 'point_of_interest', 'establishment']",4.1,171,,,
ChIJ4YhDz-kZQjERIEAdmJv8AwI,Hồ Hòa Thuận,"26V4+H44, Hòa Thuận Nam, Hải Châu, Đà Nẵng 550000, Vietnam",16.0438866,108.2053214,,"['park', 'point_of_interest', 'establishment']",,,,,
ChIJ4ZJeS8oZQjERzAlK2SZaZaA,Highlands Coffee,"115 Nguyễn Văn Linh, Nam Dương, Hải Châu, Đà Nẵng 550000, Vietnam",16.0602485,108.2167535,"['Monday: 7:00\u202fAM\u2009–\u200911:00\u202fPM', 'Tuesday: 7:00\u202fAM\u2009–\u200911:00\u202fPM', 'Wednesday: 7:00\u202fAM\u2009–\u200911:00\u202fPM', 'Thursday: 7:00\u202fAM\u2009–\u200911:00\u202fPM', 'Friday: 7:00\u202fAM\u2009–\u200911:00\u202fPM', 'Saturday: 7:00\u202fAM\u2009–\u200911:00\u202fPM', 'Sunday: 7:00\u202fAM\u2009–\u200911:00\u202fPM']","['cafe', 'food', 'store', 'point_of_interest', 'establishment']",4.3,1145,,,
ChIJ4w7694IXQjERrFXucqKL--o,My Khe Beach,"My Khe Beach, 550000, Vietnam",16.0616944,108.2469346,,"['natural_feature', 'establishment']",4.6,1831,,,
ChIJ52rQN68ZQjERGl23KILMAi8,Rosie Florist - Hoa tươi Đà Nẵng,"293 Nguyễn Tri Phương, Hòa Thuận Đông, Hải Châu, Đà Nẵng 50215, Vietnam",16.0511272,108.2127753,"['Monday: 8:30\u202fAM\u2009–\u20098:30\u202fPM', 'Tuesday: 8:30\u202fAM\u2009–\u20098:30\u202fPM', 'Wednesday: 8:30\u202fAM\u2009–\u20098:30\u202fPM', 'Thursday: 8:30\u202fAM\u2009–\u20098:30\u202fPM', 'Friday: 8:30\u202fAM\u2009–\u20098:30\u202fPM', 'Saturday: 8:30\u202fAM\u2009–\u20098:30\u202fPM', 'Sunday: 8:30\u202fAM\u2009–\u20098:30\u202fPM']","['park', 'point_of_interest', 'establishment']",5,3,,,
ChIJ544SzUkYQjERStiJnM-w4KQ,Hồ phun nước,"Hồ phun nước, Thạch Thang, Hải Châu, Đà Nẵng 550000, Vietnam",16.0730952,108.2131477,,"['natural_feature', 'establishment']",3.5,2,,,
ChIJ55XNve4ZQjER6lc9AhDe7xs,Cafe Thien Anh,"48 Tố Hữu, Hoà Cường Nam, Hải Châu, Đà Nẵng 550000, Vietnam",16.0347221,108.2207593,"['Monday: 6:00\u202fAM\u2009–\u200910:00\u202fPM', 'Tuesday: 6:00\u202fAM\u2009–\u200910:00\u202fPM', 'Wednesday: 6:00\u202fAM\u2009–\u200910:00\u202fPM', 'Thursday: 6:00\u202fAM\u2009–\u200910:00\u202fPM', 'Friday: 6:00\u202fAM\u2009–\u200910:00\u202fPM', 'Saturday: 6:00\u202fAM\u2009–\u200910:00\u202fPM', 'Sunday: 6:00\u202fAM\u2009–\u200910:00\u202fPM']","['cafe', 'point_of_interest', 'store', 'food', 'establishment']",3.9,103,,,
ChIJ56wbz1MYQjERv2W5jE22TC4,Hội Thánh Tin Lành - Chi Hội Trần Cao Vân,"35CX+8F7, K 291 Trần Cao Vân, Xuân Hà, Thanh Khê, Đà Nẵng 550000, Vietnam",16.0707885,108.1986865,,"['church', 'place_of_worship', 'point_of_interest', 'establishment']",4.8,6,,,
ChIJ5xWJb5MZQjERrbiQd_FvRJk,Nhà thờ Lê tộc Nam Duong,"K338/54, Hoàng Diệu, Phường Nam Dương, Bình Hiên, Hải Châu, Đà Nẵng 550000, Vietnam",16.0578753,108.215259,,"['church', 'place_of_worship', 'point_of_interest', 'establishment']",,,,,
ChIJ6--gHakZQjERyso1M6Tbd3c,Góc chill bên sông hàn,"26WJ+H7, Hòa Cường, Hải Châu District, Da Nang 550000, Vietnam",16.0463764,108.2306428,,"['tourist_attraction', 'point_of_interest', 'establishment']",,,,,
ChIJ66u6LPn1QTERJXEgCVcahJM,Quán Thắng Thỏ,"Unnamed Road, 325W+7FF, Hoà Ninh, Hòa Vang, Đà Nẵng, Vietnam",16.0581825,108.0461765,"['Monday: 9:00\u202fAM\u2009–\u20095:00\u202fPM', 'Tuesday: 9:00\u202fAM\u2009–\u20095:00\u202fPM', 'Wednesday: 9:00\u202fAM\u2009–\u20095:00\u202fPM', 'Thursday: 9:00\u202fAM\u2009–\u20095:00\u202fPM', 'Friday: 9:00\u202fAM\u2009–\u20095:00\u202fPM', 'Saturday: 9:00\u202fAM\u2009–\u20095:00\u202fPM', 'Sunday: 9:00\u202fAM\u2009–\u20095:00\u202fPM']","['restaurant', 'food', 'point_of_interest', 'establishment']",5,4,,,
ChIJ6SbLpjQYQjER5qEkmTLPcuY,Cơm gà A.Hải,"94, 100 Thái Phiên, Phước Ninh, Hải Châu, Đà Nẵng 550000, Vietnam",16.0653555,108.2198541,"['Monday: 8:00\u202fAM\u2009–\u200911:30\u202fPM', 'Tuesday: 8:00\u202fAM\u2009–\u200911:30\u202fPM', 'Wednesday: 8:00\u202fAM\u2009–\u200911:30\u202fPM', 'Thursday: 8:00\u202fAM\u2009–\u200911:30\u202fPM', 'Friday: 8:00\u202fAM\u2009–\u200911:30\u202fPM', 'Saturday: 8:00\u202fAM\u2009–\u200911:30\u202fPM', 'Sunday: 8:00\u202fAM\u2009–\u200911:30\u202fPM']","['restaurant', 'food', 'point_of_interest', 'establishment']",4,1546,,,
ChIJ6XD02FMZQjERzT9uC9hB_oY,Quảng trường 2/9,"26RF+F35, Hòa Cường, Hải Châu District, Da Nang, Vietnam",16.0411297,108.2227389,,"['tourist_attraction', 'point_of_interest', 'establishment']",4.5,26,,,
ChIJ6ehhkPwXQjERno-Q6jeVpKA,Đồng Tiến Bakery,"56 Nguyễn Phan Vinh, Thọ Quang, Sơn Trà, Đà Nẵng 550000, Vietnam",16.100609,108.250629,"['Monday: 5:00\u202fAM\u2009–\u200910:00\u202fPM', 'Tuesday: 5:00\u202fAM\u2009–\u200910:00\u202fPM', 'Wednesday: 5:00\u202fAM\u2009–\u200910:00\u202fPM', 'Thursday: 5:00\u202fAM\u2009–\u200910:00\u202fPM', 'Friday: 5:00\u202fAM\u2009–\u200910:00\u202fPM', 'Saturday: 5:00\u202fAM\u2009–\u200910:00\u202fPM', 'Sunday: 5:00\u202fAM\u2009–\u200910:00\u202fPM']","['bakery', 'point_of_interest', 'food', 'store', 'establishment']",4.2,89,,,
ChIJ75pYOI8ZQjEReb8Mw6ThCZQ,Nhà Thờ Con Gà,"156 Đ. Trần Phú, Hải Châu 1, Hải Châu, Đà Nẵng 550000, Vietnam",16.0666864,108.2232191,"['Monday: 7:00\u202fAM\u2009–\u20096:00\u202fPM', 'Tuesday: 7:00\u202fAM\u2009–\u20096:00\u202fPM', 'Wednesday: 7:00\u202fAM\u2009–\u20096:00\u202fPM', 'Thursday: 7:00\u202fAM\u2009–\u20096:00\u202fPM', 'Friday: 7:00\u202fAM\u2009–\u20096:00\u202fPM', 'Saturday: 7:00\u202fAM\u2009–\u20096:00\u202fPM', 'Sunday: 7:00\u202fAM\u2009–\u20096:00\u202fPM']","['tourist_attraction', 'point_of_interest', 'establishment']",4.6,382,,,
ChIJ78thjjYYQjERkiy-c9ebVPE,Danang Fine Arts Museum,"78 Đ. Lê Duẩn, Thạch Thang, Hải Châu, Đà Nẵng 550000, Vietnam",16.0712986,108.2177249,"['Monday: 8:00\u202fAM\u2009–\u20095:00\u202fPM', 'Tuesday: 8:00\u202fAM\u2009–\u20095:00\u202fPM', 'Wednesday: 8:00\u202fAM\u2009–\u20095:00\u202fPM', 'Thursday: 8:00\u202fAM\u2009–\u20095:00\u202fPM', 'Friday: 8:00\u202fAM\u2009–\u20095:00\u202fPM', 'Saturday: 8:00\u202fAM\u2009–\u20095:00\u202fPM', 'Sunday: 8:00\u202fAM\u2009–\u20095:00\u202fPM']","['tourist_attraction', 'museum', 'point_of_interest', 'establishment']",4.4,621,,,
ChIJ7WTP810XQjERzwImZ7JJx9Y,Upside down house,"44 Hồ Xuân Hương, Khuê Mỹ, Ngũ Hành Sơn, Đà Nẵng, Vietnam",16.0388189,108.2448648,"['Monday: 9:00\u202fAM\u2009–\u20097:00\u202fPM', 'Tuesday: 9:00\u202fAM\u2009–\u20097:00\u202fPM', 'Wednesday: 9:00\u202fAM\u2009–\u20097:00\u202fPM', 'Thursday: 9:00\u202fAM\u2009–\u20097:00\u202fPM', 'Friday: 9:00\u202fAM\u2009–\u20097:00\u202fPM', 'Saturday: 9:00\u202fAM\u2009–\u20097:00\u202fPM', 'Sunday: 9:00\u202fAM\u2009–\u20097:00\u202fPM']","['tourist_attraction', 'point_of_interest', 'establishment']",3.7,58,,,
ChIJ82_sTbkQQjERQ5jmVkoovic,Bảo Tàng Văn Hóa Phật Giáo,"48 Sư Vạn Hạnh, Hoà Hải, Ngũ Hành Sơn, Đà Nẵng 550000, Vietnam",15.9989293,108.2547934,"['Monday: 8:00\u202fAM\u2009–\u20096:00\u202fPM', 'Tuesday: 8:00\u202fAM\u2009–\u20096:00\u202fPM', 'Wednesday: 8:00\u202fAM\u2009–\u20096:00\u202fPM', 'Thursday: 8:00\u202fAM\u2009–\u20096:00\u202fPM', 'Friday: 8:00\u202fAM\u2009–\u20096:00\u202fPM', 'Saturday: 8:00\u202fAM\u2009–\u20096:00\u202fPM', 'Sunday: 8:00\u202fAM\u2009–\u20096:00\u202fPM']","['museum', 'tourist_attraction', 'point_of_interest', 'establishment']",4.8,8,,,
ChIJ838MA1MYQjERCAhmtwDDQPE,Quán Lẩu Nướng Hàn Quốc,"43 Thái Thị Bôi, Chính Gián, Thanh Khê, Đà Nẵng 550000, Vietnam",16.068092,108.1984046,"['Monday: 6:00\u202fAM\u2009–\u200910:30\u202fPM', 'Tuesday: 6:00\u202fAM\u2009–\u200910:30\u202fPM', 'Wednesday: 6:00\u202fAM\u2009–\u200910:30\u202fPM', 'Thursday: 6:00\u202fAM\u2009–\u200910:30\u202fPM', 'Friday: 6:00\u202fAM\u2009–\u200910:30\u202fPM', 'Saturday: 6:00\u202fAM\u2009–\u200910:30\u202fPM', 'Sunday: 6:00\u202fAM\u2009–\u200910:30\u202fPM']","['restaurant', 'food', 'point_of_interest', 'establishment']",4.8,10,,,
ChIJ86LzsaUhQjERGxE6itCeBCY,Suoi Luong,"Suối Lương, Hoà Hiệp Bắc, Liên Chiểu, Đà Nẵng, Vietnam",16.1566197,108.1093217,"['Monday: 8:00\u202fAM\u2009–\u20095:00\u202fPM', 'Tuesday: 8:00\u202fAM\u2009–\u20095:00\u202fPM', 'Wednesday: 8:00\u202fAM\u2009–\u20095:00\u202fPM', 'Thursday: 8:00\u202fAM\u2009–\u20095:00\u202fPM', 'Friday: 8:00\u202fAM\u2009–\u20095:00\u202fPM', 'Saturday: 8:00\u202fAM\u2009–\u20095:00\u202fPM', 'Sunday: 8:00\u202fAM\u2009–\u20095:00\u202fPM']","['tourist_attraction', 'point_of_interest', 'establishment']",4,1161,,,
ChIJ8V9rgAYZQjERJ5brvNEXowo,Quán Cafe Duyên,"370, Đường Hà Huy Tập, Phường Hòa Khê, Quận Thanh Khê, 370 Hà Huy Tập, Hòa Khê, Thanh Khê, Đà Nẵng 550000, Vietnam",16.0586407,108.1841947,"['Monday: 6:30\u202fAM\u2009–\u20099:30\u202fPM', 'Tuesday: 6:30\u202fAM\u2009–\u20099:30\u202fPM', 'Wednesday: 6:30\u202fAM\u2009–\u20099:30\u202fPM', 'Thursday: 6:30\u202fAM\u2009–\u20099:30\u202fPM', 'Friday: 6:30\u202fAM\u2009–\u20099:30\u202fPM', 'Saturday: 6:30\u202fAM\u2009–\u20099:30\u202fPM', 'Sunday: 6:30\u202fAM\u2009–\u20099:30\u202fPM']","['cafe', 'food', 'point_of_interest', 'establishment']",3.3,6,,,
ChIJ8aH6wzIYQjERdvTbsq3TFyk,Event Cafe,"36 Thái Phiên, Phước Ninh, Hải Châu, Đà Nẵng 550000, Vietnam",16.065148,108.2227303,,"['cafe', 'point_of_interest', 'food', 'establishment']",4.3,4,,,
ChIJ8d8aMDQYQjERLmXv-i1pIEs,T-CE,"45 Ng. Gia Tự, Hải Châu 1, Hải Châu, Đà Nẵng 550000, Vietnam",16.0692736,108.2176809,"['Monday: 7:00\u202fAM\u2009–\u200910:00\u202fPM', 'Tuesday: 7:00\u202fAM\u2009–\u200910:00\u202fPM', 'Wednesday: 7:00\u202fAM\u2009–\u200910:00\u202fPM', 'Thursday: 7:00\u202fAM\u2009–\u200910:00\u202fPM', 'Friday: 7:00\u202fAM\u2009–\u200910:00\u202fPM', 'Saturday: 7:00\u202fAM\u2009–\u200910:00\u202fPM', 'Sunday: 7:00\u202fAM\u2009–\u200910:00\u202fPM']","['restaurant', 'food', 'point_of_interest', 'establishment']",3.9,28,,,
ChIJ97WbU5j1QTERn9nLptP-mVA,Điền Trang Herbal,"22X6+9WQ, Hòa Ninh, Hòa Vang, Da Nang, Vietnam",16.0484691,108.0123746,,"['park', 'point_of_interest', 'establishment']",,,,,
ChIJ9TxPHgEZQjERS_PpJVVf9n8,Cafe Ghita,"3634+M6J, Thi Sách, Hòa Thuận Nam, Hải Châu, Đà Nẵng 550000, Vietnam",16.0542132,108.205514,,"['cafe', 'food', 'point_of_interest', 'establishment']",5,2,,,
ChIJ9fqsdOcZQjERZcIMEHw3HtY,Sun Wheel,"1 Phan Đăng Lưu, Hoà Cường Bắc, Hải Châu, Đà Nẵng, Vietnam",16.0404534,108.2283843,"['Monday: 3:00\u2009–\u20099:00\u202fPM', 'Tuesday: 3:00\u2009–\u20099:00\u202fPM', 'Wednesday: 3:00\u2009–\u20099:00\u202fPM', 'Thursday: 3:00\u2009–\u20099:00\u202fPM', 'Friday: 3:00\u2009–\u200910:00\u202fPM', 'Saturday: 3:00\u2009–\u200910:00\u202fPM', 'Sunday: 3:00\u2009–\u200910:00\u202fPM']","['tourist_attraction', 'point_of_interest', 'establishment']",4.5,4171,,,
ChIJA5o7mlIYQjERspQMjC1oYhM,Quán Cơm Gà Trung Thủy,"116 Lê Độ, Chính Gián, Thanh Khê, Đà Nẵng 550000, Vietnam",16.0675491,108.2014553,,"['restaurant', 'point_of_interest', 'food', 'establishment']",5,1,,,
ChIJAQCw3AMZQjERg81Zx6Ys8qM,My's Coffee,"357M+848, Hồ Tương, Thanh Khê Đông, Thanh Khê, Đà Nẵng 550000, Vietnam",16.0632781,108.1828231,"['Monday: Open 24 hours', 'Tuesday: Open 24 hours', 'Wednesday: Open 24 hours', 'Thursday: Open 24 hours', 'Friday: Open 24 hours', 'Saturday: Open 24 hours', 'Sunday: Open 24 hours']","['cafe', 'point_of_interest', 'food', 'establishment']",4,141,,,
ChIJASjStc0ZQjERf8hQfCEJ8JA,An Long Temple,"4 Đ. 2 Tháng 9, Bình Hiên, Hải Châu, Đà Nẵng 550000, Vietnam",16.0597945,108.223266,,"['tourist_attraction', 'place_of_worship', 'point_of_interest', 'establishment']",4.4,69,,,
ChIJAYkYfLEZQjEReED6J_FH7yg,cơm niêu Hồng Phúc (Nguyễn Tri Phương),"164, 166 Nguyễn Tri Phương, Thạc Gián, Thanh Khê, Đà Nẵng 550000, Vietnam",16.0598851,108.2053559,"['Monday: 9:00\u202fAM\u2009–\u20099:00\u202fPM', 'Tuesday: 9:00\u202fAM\u2009–\u20099:00\u202fPM', 'Wednesday: 9:00\u202fAM\u2009–\u20099:00\u202fPM', 'Thursday: 9:00\u202fAM\u2009–\u20099:00\u202fPM', 'Friday: 9:00\u202fAM\u2009–\u20099:00\u202fPM', 'Saturday: 9:00\u202fAM\u2009–\u20099:00\u202fPM', 'Sunday: 9:00\u202fAM\u2009–\u20099:00\u202fPM']","['restaurant', 'point_of_interest', 'food', 'establishment']",3.7,973,,,
ChIJAxQgHbQZQjERth3000kYD2g,Dasushi,"266, 268 Nguyễn Văn Linh, Thạc Gián, Thanh Khê, Đà Nẵng 550000, Vietnam",16.0598177,108.2090174,"['Monday: 10:00\u202fAM\u2009–\u200910:00\u202fPM', 'Tuesday: 10:00\u202fAM\u2009–\u200910:00\u202fPM', 'Wednesday: 10:00\u202fAM\u2009–\u200910:00\u202fPM', 'Thursday: 10:00\u202fAM\u2009–\u200910:00\u202fPM', 'Friday: 10:00\u202fAM\u2009–\u200910:00\u202fPM', 'Saturday: 10:00\u202fAM\u2009–\u200910:00\u202fPM', 'Sunday: 10:00\u202fAM\u2009–\u200910:00\u202fPM']","['restaurant', 'food', 'point_of_interest', 'establishment']",3.9,263,,,
ChIJB0ji5xAZQjERQK0Sn8ZRyr4,Nhà thờ tộc Võ,"3629+FJX, Hòa Thuận Đông, Hải Châu, Đà Nẵng 550000, Vietnam",16.0512417,108.2191211,,"['church', 'place_of_worship', 'point_of_interest', 'establishment']",,,,,
ChIJB1IxSU0YQjERJb8Y-peEnZY,Highlands Coffee,"46 Điện Biên Phủ, Chính Gián, Thanh Khê, Đà Nẵng 550000, Vietnam",16.0661567,108.2033345,"['Monday: 7:00\u202fAM\u2009–\u200910:00\u202fPM', 'Tuesday: 7:00\u202fAM\u2009–\u200910:00\u202fPM', 'Wednesday: 7:00\u202fAM\u2009–\u200910:00\u202fPM', 'Thursday: 7:00\u202fAM\u2009–\u200910:00\u202fPM', 'Friday: 7:00\u202fAM\u2009–\u200910:00\u202fPM', 'Saturday: 7:00\u202fAM\u2009–\u200910:00\u202fPM', 'Sunday: 7:00\u202fAM\u2009–\u200910:00\u202fPM']","['cafe', 'store', 'food', 'point_of_interest', 'establishment']",4.2,649,,,
ChIJB4j_jLQZQjERtOioQZ3aHBQ,Đặc Sản Đà Nẵng - Bún Đậu Mắm Tôm Năm Hiền,"48 Phan Thanh, Thạc Gián, Thanh Khê, Đà Nẵng 550000, Vietnam",16.0646037,108.2081321,"['Monday: Open 24 hours', 'Tuesday: Open 24 hours', 'Wednesday: Open 24 hours', 'Thursday: Open 24 hours', 'Friday: Open 24 hours', 'Saturday: Open 24 hours', 'Sunday: Open 24 hours']","['grocery_or_supermarket', 'store', 'restaurant', 'point_of_interest', 'food', 'establishment']",4.4,13,,,
ChIJB7NiEoP2QTERm1eL-dZuTKY,Giếng Trời,"Hòa Ninh, Hòa Vang, Da Nang, Vietnam",16.0347599,107.9909156,"['Monday: 9:00\u202fAM\u2009–\u20095:00\u202fPM', 'Tuesday: 9:00\u202fAM\u2009–\u20095:00\u202fPM', 'Wednesday: 9:00\u202fAM\u2009–\u20095:00\u202fPM', 'Thursday: 9:00\u202fAM\u2009–\u20095:00\u202fPM', 'Friday: 9:00\u202fAM\u2009–\u20095:00\u202fPM', 'Saturday: 9:00\u202fAM\u2009–\u20095:00\u202fPM', 'Sunday: 9:00\u202fAM\u2009–\u20095:00\u202fPM']","['tourist_attraction', 'point_of_interest', 'establishment']",4.3,83,,,
ChIJBQHuNG49QjER7Mb_Y2I64mk,Ban Co Peak,"Bàn cờ, Thọ Quang, Sơn Trà, Đà Nẵng, Vietnam",16.1189365,108.2719826,"['Monday: 7:30\u202fAM\u2009–\u20095:30\u202fPM', 'Tuesday: 7:30\u202fAM\u2009–\u20095:30\u202fPM', 'Wednesday: 7:30\u202fAM\u2009–\u20095:30\u202fPM', 'Thursday: 7:30\u202fAM\u2009–\u20095:30\u202fPM', 'Friday: 7:30\u202fAM\u2009–\u20095:30\u202fPM', 'Saturday: 7:30\u202fAM\u2009–\u20095:30\u202fPM', 'Sunday: 7:30\u202fAM\u2009–\u20095:30\u202fPM']","['tourist_attraction', 'point_of_interest', 'establishment']",4.6,2939,,,
ChIJBRawobYZQjER3gDAmFZzy1U,Lelacoffee VN,"11 Đ. Phạm Văn Nghị, Thạc Gián, Thanh Khê, Đà Nẵng 550000, Vietnam",16.0586919,108.2096446,"['Monday: 7:00\u202fAM\u2009–\u200910:00\u202fPM', 'Tuesday: 7:00\u202fAM\u2009–\u200910:00\u202fPM', 'Wednesday: 7:00\u202fAM\u2009–\u200910:00\u202fPM', 'Thursday: 7:00\u202fAM\u2009–\u200910:00\u202fPM', 'Friday: 7:00\u202fAM\u2009–\u200910:00\u202fPM', 'Saturday: 7:00\u202fAM\u2009–\u200910:00\u202fPM', 'Sunday: 7:00\u202fAM\u2009–\u200910:00\u202fPM']","['cafe', 'store', 'food', 'point_of_interest', 'establishment']",4,42,,,
ChIJBRpr56sZQjER54ftewhqToc,ホワイト ドラゴン,"37A Điện Biên Phủ, Thạc Gián, Thanh Khê, Đà Nẵng 550000, Vietnam",16.0650874,108.2045284,,"['park', 'point_of_interest', 'establishment']",,,,,
ChIJBUGlQb4ZQjERT8HjiqufUcc,Hòa Cường catholic church,"150 Nguyễn Hữu Thọ, Hòa Thuận Nam, Hải Châu, Đà Nẵng 550000, Vietnam",16.0440841,108.2097487,"['Monday: 5:00\u202fAM\u2009–\u20099:30\u202fPM', 'Tuesday: 5:00\u202fAM\u2009–\u200910:00\u202fPM', 'Wednesday: 5:00\u202fAM\u2009–\u20099:30\u202fPM', 'Thursday: 5:00\u202fAM\u2009–\u200910:00\u202fPM', 'Friday: 5:00\u202fAM\u2009–\u20099:30\u202fPM', 'Saturday: 5:00\u202fAM\u2009–\u200910:00\u202fPM', 'Sunday: 5:00\u202fAM\u2009–\u20099:30\u202fPM']","['tourist_attraction', 'church', 'place_of_worship', 'point_of_interest', 'establishment']",4.7,207,,,
ChIJC--WM94dQjERanUjSb99wac,Chớm Hạ - Bánh Tráng Túy Loan,"Chợ Túy Loan, Hoà Phong, Hòa Vang, Đà Nẵng, Vietnam",15.9900211,108.1404581,,"['restaurant', 'food', 'point_of_interest', 'establishment']",5,4,,,
ChIJCSkaqgEZQjERy0NmPW_pypY,Tần Giao Đường,"Hòa Khê, Thanh Khê District, Da Nang 550000, Vietnam",16.0642519,108.1870112,,"['church', 'place_of_worship', 'point_of_interest', 'establishment']",,,,,
ChIJCyoHH4kZQjERX3hJiiMqhyk,Đường hoa Bạch Đằng,"Bạch Đằng, Hải Châu 1, Hải Châu, Đà Nẵng 550000, Vietnam",16.0604224,108.2243312,,"['park', 'point_of_interest', 'establishment']",4.9,16,,,
ChIJD0rNYkgYQjERJYPNK6Zo_m8,Meal Cafe Royal,"46 Đ. Bắc Đẩu, Thanh Bình, Hải Châu, Đà Nẵng 550000, Vietnam",16.0766183,108.2100292,"['Monday: 6:00\u202fAM\u2009–\u200910:00\u202fPM', 'Tuesday: 6:00\u202fAM\u2009–\u200910:00\u202fPM', 'Wednesday: 6:00\u202fAM\u2009–\u200910:00\u202fPM', 'Thursday: 6:00\u202fAM\u2009–\u200910:00\u202fPM', 'Friday: 6:00\u202fAM\u2009–\u200910:00\u202fPM', 'Saturday: 6:00\u202fAM\u2009–\u200910:00\u202fPM', 'Sunday: 6:00\u202fAM\u2009–\u200910:00\u202fPM']","['cafe', 'store', 'point_of_interest', 'food', 'establishment']",3.7,18,,,
ChIJD2yDYLsiQjERWdUv7Pu56MQ,"Hồng Hụê Phở Bỏ, Lẩu Bò Nam Định","Thọ Quang, Sơn Trà, Da Nang, Vietnam",16.1220889,108.2201831,,"['restaurant', 'food', 'point_of_interest', 'establishment']",,,,,
ChIJD7dTTE4YQjERsThtVOoc-fk,Đức Mẹ Church,"K 268 Trần Cao Vân, Tam Thuận, Thanh Khê, Đà Nẵng 550000, Vietnam",16.0738477,108.2041395,,"['church', 'place_of_worship', 'point_of_interest', 'establishment']",5,1,,,
ChIJDazwY0gZQjER5qTVHh-thsY,Công viên Nguyễn Văn Linh,"366C+F4C, Nguyễn Văn Linh, Phước Ninh, Hải Châu, Đà Nẵng 550000, Vietnam",16.0611915,108.2202743,,"['park', 'point_of_interest', 'establishment']",,,,,
ChIJDcx-OTIYQjERP4eyjItPspA,Han Market,"119 Đ. Trần Phú, Hải Châu 1, Hải Châu, Đà Nẵng 550000, Vietnam",16.0682581,108.224269,"['Monday: 6:00\u202fAM\u2009–\u20097:00\u202fPM', 'Tuesday: 6:00\u202fAM\u2009–\u20097:00\u202fPM', 'Wednesday: 6:00\u202fAM\u2009–\u20097:00\u202fPM', 'Thursday: 6:00\u202fAM\u2009–\u20097:00\u202fPM', 'Friday: 6:00\u202fAM\u2009–\u20097:00\u202fPM', 'Saturday: 6:00\u202fAM\u2009–\u20097:00\u202fPM', 'Sunday: 6:00\u202fAM\u2009–\u20097:00\u202fPM']","['tourist_attraction', 'point_of_interest', 'establishment']",3.8,20707,,,
ChIJDwGh8OkZQjERDYCZ8qcjxbs,Nhà Hàng Tuyên Sơn 2,"60-62 30 Tháng 4, Hòa Cường, Hải Châu, Đà Nẵng 550000, Vietnam",16.0401447,108.2139202,"['Monday: 8:00\u202fAM\u2009–\u200910:00\u202fPM', 'Tuesday: 8:00\u202fAM\u2009–\u200910:00\u202fPM', 'Wednesday: 8:00\u202fAM\u2009–\u200910:00\u202fPM', 'Thursday: 8:00\u202fAM\u2009–\u200910:00\u202fPM', 'Friday: 8:00\u202fAM\u2009–\u200910:00\u202fPM', 'Saturday: 8:00\u202fAM\u2009–\u200910:00\u202fPM', 'Sunday: 8:00\u202fAM\u2009–\u200910:00\u202fPM']","['restaurant', 'food', 'point_of_interest', 'establishment']",4,242,,,
ChIJE-xj5DYYQjERgi4R7Jftz4o,Hot and Cold,"80-82 Hải Phòng, Thạch Thang, Hải Châu, Đà Nẵng 550000, Vietnam",16.0724198,108.2179828,"['Monday: 7:00\u2009–\u200910:00\u202fPM', 'Tuesday: 7:00\u2009–\u200910:00\u202fPM', 'Wednesday: 7:00\u2009–\u200910:00\u202fPM', 'Thursday: 7:00\u2009–\u200910:00\u202fPM', 'Friday: 7:00\u2009–\u200910:00\u202fPM', 'Saturday: 7:00\u2009–\u200910:00\u202fPM', 'Sunday: 7:00\u2009–\u200910:00\u202fPM']","['restaurant', 'point_of_interest', 'food', 'establishment']",4.3,4,,,
ChIJES-7KgIZQjERV_DyDVCc4Qg,Quán Cafe Kim Trung,"157, Đường Cù Chính Lan, Phường Hòa Khê, Quận Thanh Khê, Thanh Khê Đông, Thanh Khê, Đà Nẵng 550000, Vietnam",16.0644637,108.1842666,"['Monday: 6:00\u202fAM\u2009–\u200910:00\u202fPM', 'Tuesday: 6:00\u202fAM\u2009–\u200910:00\u202fPM', 'Wednesday: 6:00\u202fAM\u2009–\u200910:00\u202fPM', 'Thursday: 6:00\u202fAM\u2009–\u200910:00\u202fPM', 'Friday: 6:00\u202fAM\u2009–\u200910:00\u202fPM', 'Saturday: 6:00\u202fAM\u2009–\u200910:00\u202fPM', 'Sunday: 6:00\u202fAM\u2009–\u200910:00\u202fPM']","['cafe', 'point_of_interest', 'food', 'establishment']",3.2,6,,,
ChIJESDKJ8UZQjER_a0FRhktnV0,Nhà hàng Minh Tâm Đảo Xanh,"Lô 3A, 2.5 Trần Thị Lý, Hoà Cường Bắc, Hải Châu, Đà Nẵng 550000, Vietnam",16.0490718,108.2241468,"['Monday: 8:00\u202fAM\u2009–\u200910:00\u202fPM', 'Tuesday: 8:30\u202fAM\u2009–\u200910:00\u202fPM', 'Wednesday: 9:30\u202fAM\u2009–\u200910:00\u202fPM', 'Thursday: 8:30\u202fAM\u2009–\u200910:00\u202fPM', 'Friday: 8:30\u202fAM\u2009–\u200910:00\u202fPM', 'Saturday: 8:30\u202fAM\u2009–\u200910:00\u202fPM', 'Sunday: 8:30\u202fAM\u2009–\u200910:00\u202fPM']","['restaurant', 'food', 'point_of_interest', 'establishment']",3.6,426,,,
ChIJEU3XDMoZQjERZa3tVqPA7_4,Ui Chao Lẩu Nướng,"57 Nguyễn Văn Linh, Bình Hiên, Hải Châu, Đà Nẵng 550000, Vietnam",16.0607424,108.2205214,"['Monday: 10:00\u202fAM\u2009–\u200911:00\u202fPM', 'Tuesday: 10:00\u202fAM\u2009–\u200911:00\u202fPM', 'Wednesday: 10:00\u202fAM\u2009–\u200911:00\u202fPM', 'Thursday: 10:00\u202fAM\u2009–\u200911:00\u202fPM', 'Friday: 10:00\u202fAM\u2009–\u200911:00\u202fPM', 'Saturday: 10:00\u202fAM\u2009–\u200911:00\u202fPM', 'Sunday: 10:00\u202fAM\u2009–\u200911:00\u202fPM']","['restaurant', 'point_of_interest', 'food', 'establishment']",3.9,226,,,
ChIJE__tpJEZQjERsJD7e-aW67k,Công viên Cung Thiếu nhi Đà Nẵng,"26QF+GJV, Đ. 2 Tháng 9, Hòa Cường, Hải Châu, Đà Nẵng, Vietnam",16.03886,108.2240549,,"['park', 'point_of_interest', 'establishment']",4.8,4,,,
ChIJEfpBJDEYQjERjBNlSpkJj78,Hong Ngoc Restaurant,"191, 193 Nguyễn Chí Thanh, Hải Châu 1, Hải Châu, Đà Nẵng 550000, Vietnam",16.0697995,108.2213273,"['Monday: 6:30\u202fAM\u2009–\u20099:30\u202fPM', 'Tuesday: 6:30\u202fAM\u2009–\u20099:30\u202fPM', 'Wednesday: 6:30\u202fAM\u2009–\u20099:30\u202fPM', 'Thursday: 6:30\u202fAM\u2009–\u20099:30\u202fPM', 'Friday: 6:30\u202fAM\u2009–\u20099:30\u202fPM', 'Saturday: 6:30\u202fAM\u2009–\u20099:30\u202fPM', 'Sunday: 6:30\u202fAM\u2009–\u20099:30\u202fPM']","['cafe', 'store', 'restaurant', 'food', 'point_of_interest', 'establishment']",3.9,987,,,
ChIJEymIkTYYQjERWO-pgjkKGMk,Đà Nẵng Museum,"24 Đ. Trần Phú, Thạch Thang, Hải Châu, Đà Nẵng 550000, Vietnam",16.0763229,108.221648,"['Monday: 8:00\u2009–\u200911:30\u202fAM, 2:00\u2009–\u20095:00\u202fPM', 'Tuesday: 8:00\u2009–\u200911:30\u202fAM, 2:00\u2009–\u20095:00\u202fPM', 'Wednesday: 8:00\u2009–\u200911:30\u202fAM, 2:00\u2009–\u20095:00\u202fPM', 'Thursday: 8:00\u2009–\u200911:30\u202fAM, 2:00\u2009–\u20095:00\u202fPM', 'Friday: 8:00\u2009–\u200911:30\u202fAM, 2:00\u2009–\u20095:00\u202fPM', 'Saturday: 8:00\u2009–\u200911:30\u202fAM, 2:00\u2009–\u20095:00\u202fPM', 'Sunday: 8:00\u2009–\u200911:30\u202fAM, 2:00\u2009–\u20095:00\u202fPM']","['tourist_attraction', 'museum', 'point_of_interest', 'establishment']",4,1382,,,
ChIJF8yRoecZQjERdDBeBdSRD-Y,Asia Park - Sun World Da Nang Wonders,"1 Phan Đăng Lưu, Hoà Cường Bắc, Hải Châu, Đà Nẵng, Vietnam",16.0383924,108.2266751,"['Monday: 3:00\u2009–\u200910:00\u202fPM', 'Tuesday: 3:00\u2009–\u200910:00\u202fPM', 'Wednesday: 3:00\u2009–\u200910:00\u202fPM', 'Thursday: 3:00\u2009–\u200910:00\u202fPM', 'Friday: 3:00\u2009–\u200910:00\u202fPM', 'Saturday: 3:00\u2009–\u200910:00\u202fPM', 'Sunday: 3:00\u2009–\u200910:00\u202fPM']","['tourist_attraction', 'amusement_park', 'park', 'point_of_interest', 'establishment']",4.4,8607,,,
ChIJFR7OCfMZQjER5X-5fS-EWwg,Hồ Khuê Trung,"Hồ Khuê Trung, Đà Nẵng, Vietnam",16.0265901,108.2173641,,"['natural_feature', 'establishment']",3.8,4,,,
ChIJFTMT5a8ZQjER_GqUyRos_f4,PHỞ 24 - ĐÀ NẴNG,"Quầy B, Sân Bay Quốc Nội Đà Nẵng, Duy Tân, Hòa Thuận Tây, Hải Châu, Đà Nẵng 550000, Vietnam",16.0533386,108.2024189,"['Monday: 6:00\u202fAM\u2009–\u200911:00\u202fPM', 'Tuesday: 6:00\u202fAM\u2009–\u200911:00\u202fPM', 'Wednesday: 6:00\u202fAM\u2009–\u200911:00\u202fPM', 'Thursday: 6:00\u202fAM\u2009–\u200911:00\u202fPM', 'Friday: 6:00\u202fAM\u2009–\u200911:00\u202fPM', 'Saturday: 6:00\u202fAM\u2009–\u200911:00\u202fPM', 'Sunday: 6:00\u202fAM\u2009–\u200911:00\u202fPM']","['restaurant', 'food', 'point_of_interest', 'establishment']",3.7,77,,,
ChIJFX4NTvAZQjER5W-vA1ia50o,Công viên Ga Đà Nẵng,"36C5+FP9, Hải Phòng, Tân Chính, Thanh Khê, Đà Nẵng 550000, Vietnam",16.0711665,108.2093708,,"['park', 'point_of_interest', 'establishment']",3.3,3,,,
ChIJFeQ3IOgZQjERt_S0v8EQgi8,Đài Tưởng niệm Liệt sỹ TP Đà Nẵng,"664 Đ. 2 Tháng 9, Hoà Cường Bắc, Hải Châu, Đà Nẵng, Vietnam",16.0410321,108.2243161,,"['point_of_interest', 'establishment']",4.3,3,,,
ChIJFxpIcDYYQjERA9am1qqeNnA,BonPas Bakery & Coffee,"59 Đ. Lê Duẩn, Hải Châu 1, Hải Châu, Đà Nẵng 550000, Vietnam",16.070898,108.2172317,"['Monday: 6:00\u202fAM\u2009–\u200910:00\u202fPM', 'Tuesday: 6:00\u202fAM\u2009–\u200910:00\u202fPM', 'Wednesday: 6:00\u202fAM\u2009–\u200910:00\u202fPM', 'Thursday: 6:00\u202fAM\u2009–\u200910:00\u202fPM', 'Friday: 6:00\u202fAM\u2009–\u200910:00\u202fPM', 'Saturday: 6:00\u202fAM\u2009–\u200910:00\u202fPM', 'Sunday: 6:00\u202fAM\u2009–\u200910:00\u202fPM']","['cafe', 'bakery', 'store', 'restaurant', 'point_of_interest', 'food', 'establishment']",4.3,647,,,
ChIJFzkgXmA9QjERbjn2eoPqMn8,Tinh Vien Son Tra,"Lương Hữu Khánh, Thọ Quang, Sơn Trà, Đà Nẵng, Vietnam",16.1147325,108.2572469,"['Monday: 6:30\u202fAM\u2009–\u20095:00\u202fPM', 'Tuesday: 6:30\u202fAM\u2009–\u20095:00\u202fPM', 'Wednesday: 6:30\u202fAM\u2009–\u20095:00\u202fPM', 'Thursday: 6:30\u202fAM\u2009–\u20095:00\u202fPM', 'Friday: 6:30\u202fAM\u2009–\u20095:00\u202fPM', 'Saturday: 6:30\u202fAM\u2009–\u20095:00\u202fPM', 'Sunday: 6:30\u202fAM\u2009–\u20095:00\u202fPM']","['park', 'point_of_interest', 'establishment']",4.6,531,,,
ChIJGbzqh_YZQjERwzj9AqNgnEM,Chùa Xuân Hòa,"Xuan Ha, Thanh Khê District, Da Nang 550000, Vietnam",16.0686057,108.192376,,"['museum', 'point_of_interest', 'establishment']",5,2,,,
ChIJGeVGlAMZQjERD2F71k6ayJQ,Cafe Mộc,"357M+42R, Hồ Tương, Thanh Khê Đông, Thanh Khê, Đà Nẵng 550000, Vietnam",16.0628624,108.1825041,"['Monday: 6:00\u202fAM\u2009–\u20098:30\u202fPM', 'Tuesday: 6:00\u202fAM\u2009–\u20098:30\u202fPM', 'Wednesday: 6:00\u202fAM\u2009–\u20098:30\u202fPM', 'Thursday: 6:00\u202fAM\u2009–\u20098:30\u202fPM', 'Friday: 6:00\u202fAM\u2009–\u20098:30\u202fPM', 'Saturday: 6:00\u202fAM\u2009–\u20098:30\u202fPM', 'Sunday: 6:00\u202fAM\u2009–\u20098:30\u202fPM']","['cafe', 'point_of_interest', 'food', 'establishment']",3.8,23,,,
ChIJGeaGSLIZQjERoLnjaru2VGU,Cơm niêu 3 Cá Bống,"112 Nguyễn Tri Phương, Chính Gián, Thanh Khê, Đà Nẵng 550000, Vietnam",16.0615546,108.2043947,"['Monday: 9:00\u202fAM\u2009–\u200910:00\u202fPM', 'Tuesday: 9:00\u202fAM\u2009–\u200910:00\u202fPM', 'Wednesday: 9:00\u202fAM\u2009–\u200910:00\u202fPM', 'Thursday: 9:00\u202fAM\u2009–\u200910:00\u202fPM', 'Friday: 12:00\u202fAM\u2009–\u200910:00\u202fPM', 'Saturday: 9:00\u202fAM\u2009–\u200910:00\u202fPM', 'Sunday: 9:00\u202fAM\u2009–\u200910:00\u202fPM']","['restaurant', 'food', 'point_of_interest', 'establishment']",4,288,,,
ChIJH4EWXqT1QTERwIw9B5mf1Y0,Nước mía Bảo Nguyên,"22X6+8X8, Hòa Ninh, Hòa Vang, Da Nang, Vietnam",16.0482758,108.0124469,"['Monday: Open 24 hours', 'Tuesday: Open 24 hours', 'Wednesday: Open 24 hours', 'Thursday: Open 24 hours', 'Friday: Open 24 hours', 'Saturday: Open 24 hours', 'Sunday: Open 24 hours']","['bakery', 'point_of_interest', 'food', 'store', 'establishment']",,,,,
ChIJH6q3g_n1QTER5oZX3wpZ3-0,Jardin du Soleil - Vườn mặt trời,"Unnamed Road, 322M+RHC, Hoà Ninh, Hòa Vang, Đà Nẵng, Vietnam",16.0520623,108.0338917,,"['campground', 'park', 'lodging', 'point_of_interest', 'establishment']",5,1,,,
ChIJHTR8VDIYQjERdfEDU-POofU,Đà Nẵng Cathedral,"156 Đ. Trần Phú, Hải Châu 1, Hải Châu, Đà Nẵng 550000, Vietnam",16.0666718,108.2229706,"['Monday: 6:00\u202fAM\u2009–\u20094:30\u202fPM', 'Tuesday: 6:00\u202fAM\u2009–\u20094:30\u202fPM', 'Wednesday: 6:00\u202fAM\u2009–\u20094:30\u202fPM', 'Thursday: 6:00\u202fAM\u2009–\u20094:30\u202fPM', 'Friday: 6:00\u202fAM\u2009–\u20094:30\u202fPM', 'Saturday: 6:00\u202fAM\u2009–\u20094:30\u202fPM', 'Sunday: 11:30\u202fAM\u2009–\u20091:30\u202fPM']","['tourist_attraction', 'church', 'place_of_worship', 'point_of_interest', 'establishment']",3.9,9386,,,
ChIJHwTBgbkZQjERMasXdSlll1w,G-Coffee,"122 Duy Tân, Hòa Thuận Nam, Hải Châu, Đà Nẵng 550000, Vietnam",16.0511511,108.2082478,"['Monday: 6:00\u202fAM\u2009–\u200910:00\u202fPM', 'Tuesday: 6:00\u202fAM\u2009–\u200910:00\u202fPM', 'Wednesday: 6:00\u202fAM\u2009–\u200910:00\u202fPM', 'Thursday: 6:00\u202fAM\u2009–\u200910:00\u202fPM', 'Friday: 6:00\u202fAM\u2009–\u200910:00\u202fPM', 'Saturday: 6:00\u202fAM\u2009–\u200910:00\u202fPM', 'Sunday: 6:00\u202fAM\u2009–\u200910:00\u202fPM']","['cafe', 'point_of_interest', 'food', 'establishment']",4.1,36,,,
ChIJI4dziJEZQjERgstBZnZ5cSk,Chả Bò Đà Nẵng - Đặc Sản Đà Nẵng Hà Hoa,"72 Nguyễn Dữ, Khuê Trung, Cẩm Lệ, Đà Nẵng 50000, Vietnam",16.0334222,108.207884,,"['tourist_attraction', 'grocery_or_supermarket', 'store', 'health', 'food', 'point_of_interest', 'establishment']",4.7,23,,,
ChIJI85kEAAZQjERpstMFkP60mc,Khong Gian Xua,"402 Điện Biên Phủ, Hòa Khê, Thanh Khê, Đà Nẵng 550000, Vietnam",16.0663007,108.18943,"['Monday: 6:30\u202fAM\u2009–\u200910:00\u202fPM', 'Tuesday: 6:30\u202fAM\u2009–\u200910:00\u202fPM', 'Wednesday: 6:30\u202fAM\u2009–\u200910:00\u202fPM', 'Thursday: 6:30\u202fAM\u2009–\u200910:00\u202fPM', 'Friday: 6:30\u202fAM\u2009–\u200910:00\u202fPM', 'Saturday: 6:30\u202fAM\u2009–\u200910:00\u202fPM', 'Sunday: 6:30\u202fAM\u2009–\u200910:00\u202fPM']","['restaurant', 'cafe', 'point_of_interest', 'store', 'food', 'establishment']",4.2,1865,,,
ChIJISGxjKAZQjER_jnNSdEBzM4,Công viên Hà Thị Thân,"365J+F3F, Hà Thị Thân, An Hải, Sơn Trà, Đà Nẵng 550000, Vietnam",16.058681,108.2301821,,"['park', 'point_of_interest', 'establishment']",5,1,,,
ChIJIbYHcUsZQjERkchcEhiKK0E,Nhà Thờ Tin Lành Tân An [Đà Nẵng],"56 Điện Biên Phủ, Chính Gián, Thanh Khê, Đà Nẵng 550000, Vietnam",16.0663356,108.2029988,"['Monday: 5:00\u202fAM\u2009–\u200910:00\u202fPM', 'Tuesday: 5:00\u202fAM\u2009–\u200910:00\u202fPM', 'Wednesday: 5:00\u202fAM\u2009–\u20095:00\u202fPM', 'Thursday: 5:00\u202fAM\u2009–\u200910:00\u202fPM', 'Friday: 5:00\u202fAM\u2009–\u200910:00\u202fPM', 'Saturday: 5:00\u202fAM\u2009–\u200910:00\u202fPM', 'Sunday: 5:00\u202fAM\u2009–\u200910:00\u202fPM']","['church', 'place_of_worship', 'point_of_interest', 'establishment']",4.8,34,,,
ChIJIxuBFisZQjERezxPeB4VrUk,Coffe Vừng Lộc,"348V+MJW, Hoà Khánh Bắc, Liên Chiểu, Da Nang 550000, Vietnam",16.0667256,108.1440833,,"['cafe', 'point_of_interest', 'food', 'establishment']",4,7,,,
ChIJJ-67mLwiQjEREA_qw-_zsP4,Quán Ăn Thanh Phương,"1 Yết Kiêu, Thọ Quang, Sơn Trà, Đà Nẵng, Vietnam",16.1217221,108.2193932,,"['restaurant', 'point_of_interest', 'food', 'establishment']",4,1,,,
ChIJJ-xGX8sZQjERu02IB7BAu54,Dasushi,"150 Phan Châu Trinh, Phước Ninh, Hải Châu, Đà Nẵng 550000, Vietnam",16.0633901,108.2197091,"['Monday: 10:30\u202fAM\u2009–\u200910:30\u202fPM', 'Tuesday: 10:30\u202fAM\u2009–\u200910:30\u202fPM', 'Wednesday: 10:30\u202fAM\u2009–\u200910:30\u202fPM', 'Thursday: 10:30\u202fAM\u2009–\u200910:30\u202fPM', 'Friday: 10:30\u202fAM\u2009–\u200910:30\u202fPM', 'Saturday: 10:30\u202fAM\u2009–\u200910:30\u202fPM', 'Sunday: 10:30\u202fAM\u2009–\u200910:30\u202fPM']","['restaurant', 'point_of_interest', 'food', 'establishment']",3.8,360,,,
ChIJJ1XiON31QTERxWI5TaFYC_A,Vietnam Fishing Farm,"22X6+8X8, Hòa Ninh, Hòa Vang, Da Nang, Vietnam",16.0482758,108.0124469,,"['park', 'point_of_interest', 'establishment']",,,,,
ChIJJZ7AR88ZQjERVTGsaxMldnc,Phố Cổ Hà Nội - Nem chua rán số 1,"184 Triệu Nữ Vương, Nam Dương, Hải Châu, Đà Nẵng 550000, Vietnam",16.0609855,108.2169354,"['Monday: 11:00\u202fAM\u2009–\u200910:00\u202fPM', 'Tuesday: 11:00\u202fAM\u2009–\u200910:00\u202fPM', 'Wednesday: 11:00\u202fAM\u2009–\u200910:00\u202fPM', 'Thursday: 11:00\u202fAM\u2009–\u200910:00\u202fPM', 'Friday: 11:00\u202fAM\u2009–\u200910:00\u202fPM', 'Saturday: 11:00\u202fAM\u2009–\u200910:00\u202fPM', 'Sunday: 11:00\u202fAM\u2009–\u200910:00\u202fPM']","['meal_delivery', 'cafe', 'meal_takeaway', 'restaurant', 'food', 'point_of_interest', 'store', 'establishment']",4.5,33,,,
ChIJJxPH3yoZQjERMfjOzzLvmxU,Han River Bridge Viewpoint,"36CG+RC6, Hải Châu 1, Hải Châu District, Da Nang 550000, Vietnam",16.0720345,108.2260117,"['Monday: Open 24 hours', 'Tuesday: Open 24 hours', 'Wednesday: Open 24 hours', 'Thursday: Open 24 hours', 'Friday: Open 24 hours', 'Saturday: Open 24 hours', 'Sunday: Open 24 hours']","['tourist_attraction', 'point_of_interest', 'establishment']",5,1,,,
ChIJK0gKAjUYQjERAN1NrnpHclM,Bún Mắm Vân,"23/14 Trần Kế Xương, Hải Châu 2, Hải Châu, Đà Nẵng 550000, Vietnam",16.066815,108.216984,"['Monday: 6:30\u202fAM\u2009–\u200910:00\u202fPM', 'Tuesday: 6:30\u202fAM\u2009–\u200910:00\u202fPM', 'Wednesday: 6:30\u202fAM\u2009–\u200910:00\u202fPM', 'Thursday: 6:30\u202fAM\u2009–\u200910:00\u202fPM', 'Friday: 6:30\u202fAM\u2009–\u200910:00\u202fPM', 'Saturday: 6:30\u202fAM\u2009–\u200910:00\u202fPM', 'Sunday: 6:30\u202fAM\u2009–\u200910:00\u202fPM']","['restaurant', 'point_of_interest', 'food', 'establishment']",4.2,726,,,
ChIJK4sVPc0ZQjERdGROWQ8MMg4,Helio Center,"Tòa nhà Helio, 01 Đ. 2 Tháng 9, Hoà Cường Bắc, Hải Châu, Đà Nẵng, Vietnam",16.0359504,108.2242925,"['Monday: 5:00\u2009–\u200910:00\u202fPM', 'Tuesday: 5:00\u2009–\u200910:00\u202fPM', 'Wednesday: 5:00\u2009–\u200910:00\u202fPM', 'Thursday: 5:00\u2009–\u200910:00\u202fPM', 'Friday: 5:00\u2009–\u200910:00\u202fPM', 'Saturday: 5:00\u2009–\u200910:30\u202fPM', 'Sunday: 5:00\u2009–\u200910:30\u202fPM']","['point_of_interest', 'establishment']",4.3,2915,,,
ChIJKUrtUjMYQjERzkn7h3lSvBg,Cà Phê Ngọc Ánh,"245 Nguyễn Chí Thanh, Phước Ninh, Hải Châu, Đà Nẵng 550000, Vietnam",16.0661789,108.2209128,,"['cafe', 'food', 'point_of_interest', 'establishment']",5,1,,,
ChIJKwa8fzoYQjERbNsyeIjSIgg,Mia,"9-11 Quang Trung, Hải Châu 1, Hải Châu, Đà Nẵng 550000, Vietnam",16.0750263,108.222222,"['Monday: 6:30\u202fAM\u2009–\u20096:30\u202fPM', 'Tuesday: 6:30\u202fAM\u2009–\u20096:30\u202fPM', 'Wednesday: 6:30\u202fAM\u2009–\u20096:30\u202fPM', 'Thursday: 6:30\u202fAM\u2009–\u20096:30\u202fPM', 'Friday: 6:30\u202fAM\u2009–\u20096:30\u202fPM', 'Saturday: 6:30\u202fAM\u2009–\u20096:30\u202fPM', 'Sunday: 6:30\u202fAM\u2009–\u20096:30\u202fPM']","['cafe', 'point_of_interest', 'food', 'establishment']",4.2,177,,,
ChIJL710Z-gZQjERTwK6WEaLM1c,Children's cultural houses,"2a Phan Đăng Lưu, Hoà Cường Bắc, Hải Châu, Đà Nẵng, Vietnam",16.0387805,108.2254072,"['Monday: 8:00\u202fAM\u2009–\u20096:00\u202fPM', 'Tuesday: 8:00\u202fAM\u2009–\u20096:00\u202fPM', 'Wednesday: 8:00\u202fAM\u2009–\u20096:00\u202fPM', 'Thursday: 8:00\u202fAM\u2009–\u20096:00\u202fPM', 'Friday: 8:00\u202fAM\u2009–\u20096:00\u202fPM', 'Saturday: 8:00\u202fAM\u2009–\u20096:00\u202fPM', 'Sunday: 8:00\u202fAM\u2009–\u20096:00\u202fPM']","['tourist_attraction', 'point_of_interest', 'establishment']",4.4,1276,,,
ChIJLTomluP3QTERUy-b9iAYR8U,Khu du lịch sinh thái Suối Hoa,"XX5W+926, QL14G, Hoà Phú, Hòa Vang, Đà Nẵng, Vietnam",15.95841,107.9950213,"['Monday: Open 24 hours', 'Tuesday: Open 24 hours', 'Wednesday: Open 24 hours', 'Thursday: Open 24 hours', 'Friday: Open 24 hours', 'Saturday: Open 24 hours', 'Sunday: Open 24 hours']","['tourist_attraction', 'point_of_interest', 'establishment']",3.5,16,,,
ChIJLTyqmVAjQjERpdMZc87f3o8,Bún Chả Hà Nội,"1 Yết Kiêu, Thọ Quang, Sơn Trà, Đà Nẵng, Vietnam",16.1218026,108.2193427,"['Monday: Open 24 hours', 'Tuesday: Open 24 hours', 'Wednesday: Open 24 hours', 'Thursday: Open 24 hours', 'Friday: Open 24 hours', 'Saturday: Open 24 hours', 'Sunday: Open 24 hours']","['cafe', 'store', 'food', 'point_of_interest', 'establishment']",,,,,
ChIJLWoAs80ZQjERLKHDYD-ZymI,Da Nang Museum of Cham Sculpture,"Số 02 Đ. 2 Tháng 9, Bình Hiên, Hải Châu, Đà Nẵng 550000, Vietnam",16.0603007,108.2232677,"['Monday: 7:30\u202fAM\u2009–\u20095:00\u202fPM', 'Tuesday: 7:30\u202fAM\u2009–\u20095:00\u202fPM', 'Wednesday: 7:30\u202fAM\u2009–\u20095:00\u202fPM', 'Thursday: 7:30\u202fAM\u2009–\u20095:00\u202fPM', 'Friday: 7:30\u202fAM\u2009–\u20095:00\u202fPM', 'Saturday: 7:30\u202fAM\u2009–\u20095:00\u202fPM', 'Sunday: 7:30\u202fAM\u2009–\u20095:00\u202fPM']","['tourist_attraction', 'general_contractor', 'museum', 'point_of_interest', 'establishment']",4.1,5217,,,
ChIJLYD4pucZQjER_ol_HxeelhQ,Sun World Asia Park,"1 Phan Đăng Lưu, Hoà Cường Bắc, Hải Châu, Đà Nẵng, Vietnam",16.0402596,108.2266311,,"['amusement_park', 'premise', 'point_of_interest', 'establishment']",,,,,
ChIJLar0HgcZQjER2rDrJmVkJTo,Sweet Home Da Nang,"285 Hà Huy Tập, Hòa Khê, Thanh Khê, Đà Nẵng 550000, Vietnam",16.0597096,108.1875707,"['Monday: Closed', 'Tuesday: 7:00\u2009–\u200910:00\u202fAM, 4:00\u2009–\u200910:00\u202fPM', 'Wednesday: 7:00\u2009–\u200910:00\u202fAM, 4:00\u2009–\u200910:00\u202fPM', 'Thursday: 7:00\u2009–\u200910:00\u202fAM, 4:00\u2009–\u200910:00\u202fPM', 'Friday: 7:00\u2009–\u200910:00\u202fAM, 4:00\u2009–\u200910:00\u202fPM', 'Saturday: 7:00\u2009–\u200910:00\u202fAM, 4:00\u2009–\u200910:00\u202fPM', 'Sunday: 7:00\u2009–\u200910:00\u202fAM, 4:00\u2009–\u200910:00\u202fPM']","['cafe', 'point_of_interest', 'food', 'establishment']",3.7,3,,,
ChIJLcw0ga_1QTERgvh6KCmmGs0,nhà Gỗ,"Unnamed, Road, Hòa Vang, Đà Nẵng, Vietnam",16.06261,108.044518,,"['park', 'point_of_interest', 'establishment']",5,1,,,
ChIJLeCFK_UZQjERj-5n5upvl1g,"Nhà thờ tộc Nguyễn, phái nhất Xuân hà chi nhất","439 Điện Biên Phủ, Hòa Khê, Thanh Khê, Đà Nẵng 550000, Vietnam",16.0655842,108.1880443,,"['church', 'place_of_worship', 'point_of_interest', 'establishment']",,,,,
ChIJLezJ2eUfQjER1SINSYhL8No,Nước mắm Nam Ô - Hương Làng Cổ,"Kiệt 884 Nguyễn Lương Bằng, Nam Ô 1, Liên Chiểu, Đà Nẵng, Vietnam",16.1148758,108.1298819,"['Monday: Open 24 hours', 'Tuesday: Open 24 hours', 'Wednesday: Open 24 hours', 'Thursday: Open 24 hours', 'Friday: Open 24 hours', 'Saturday: Open 24 hours', 'Sunday: 7:00\u202fAM\u2009–\u200912:00\u202fPM']","['grocery_or_supermarket', 'food', 'point_of_interest', 'store', 'establishment']",5,22,,,
ChIJM_x8QrAZQjERhWR0uIkXfW4,Hồ Hải Châu,"K48 Phan Châu Trinh, Hải Châu 1, Hải Châu, Đà Nẵng 550000, Vietnam",16.0672279,108.2194787,,"['park', 'point_of_interest', 'establishment']",,,,,
ChIJMwA4NV0eQjERqlQ5BlE_vCs,Nhà thờ Giáo xứ Hòa Ninh,"333M+Q9M, Đ. 602, Hoà Ninh, Hòa Vang, Đà Nẵng, Vietnam",16.0544664,108.0834098,,"['church', 'place_of_worship', 'point_of_interest', 'establishment']",4.4,41,,,
ChIJNTchqCoZQjERFDsjpSB0WGM,Quán Cháo Vịt Ông Chủ Nhỏ,"157 Âu Cơ, Hoà Khánh Bắc, Liên Chiểu, Đà Nẵng 550000, Vietnam",16.0709255,108.1432857,"['Monday: 2:00\u2009–\u20099:00\u202fPM', 'Tuesday: 2:00\u2009–\u20099:00\u202fPM', 'Wednesday: 2:00\u2009–\u20099:00\u202fPM', 'Thursday: 2:00\u2009–\u20099:00\u202fPM', 'Friday: 2:00\u2009–\u20099:00\u202fPM', 'Saturday: 2:00\u2009–\u20099:00\u202fPM', 'Sunday: 2:00\u2009–\u20099:00\u202fPM']","['restaurant', 'food', 'point_of_interest', 'establishment']",4.7,171,,,
ChIJNUwPk-cZQjERgxIYcjgmCyU,Công viên biển Hà Khê,"35FR+4Q6, Hà Khê, Thanh Khê, Đà Nẵng 550000, Vietnam",16.07279,108.1918996,,"['park', 'point_of_interest', 'establishment']",4.3,51,,,
ChIJN_RWt7UZQjERPP4JMZfm25M,Shinshu,"09 Lê Đình Lý, Vĩnh Trung, Hải Châu, Đà Nẵng 550000, Vietnam",16.0588943,108.2113997,"['Monday: 6:00\u202fAM\u2009–\u200910:00\u202fPM', 'Tuesday: 6:00\u202fAM\u2009–\u200910:00\u202fPM', 'Wednesday: 6:00\u202fAM\u2009–\u200910:00\u202fPM', 'Thursday: 6:00\u202fAM\u2009–\u200910:00\u202fPM', 'Friday: 6:00\u202fAM\u2009–\u200910:00\u202fPM', 'Saturday: 6:00\u202fAM\u2009–\u200910:00\u202fPM', 'Sunday: 6:00\u202fAM\u2009–\u200910:00\u202fPM']","['restaurant', 'food', 'point_of_interest', 'establishment']",4.1,133,,,
ChIJNcB_BzoYQjERYaYaOH85QOU,Hội Cafe & Board Games Đà Nẵng,"46 Nguyễn Chí Thanh, Thạch Thang, Hải Châu, Đà Nẵng 550000, Vietnam",16.0754498,108.2204121,"['Monday: 12:30\u2009–\u200910:30\u202fPM', 'Tuesday: 12:30\u2009–\u200910:30\u202fPM', 'Wednesday: 12:30\u2009–\u200910:30\u202fPM', 'Thursday: 12:30\u2009–\u200910:30\u202fPM', 'Friday: 12:30\u2009–\u200910:30\u202fPM', 'Saturday: 12:30\u2009–\u200910:30\u202fPM', 'Sunday: 12:30\u2009–\u200910:30\u202fPM']","['cafe', 'point_of_interest', 'food', 'store', 'establishment']",4.9,692,,,
ChIJO0y6zMwZQjER3M8ZDhnI_E4,Lẩu bò Ba Duệ,"40 Lê Hồng Phong, Phước Ninh, Hải Châu, Đà Nẵng 550000, Vietnam",16.0640029,108.2219551,"['Monday: 6:00\u2009–\u200911:00\u202fPM', 'Tuesday: 6:00\u2009–\u200911:00\u202fPM', 'Wednesday: 6:00\u2009–\u200911:00\u202fPM', 'Thursday: 6:00\u2009–\u200911:00\u202fPM', 'Friday: 6:00\u2009–\u200911:00\u202fPM', 'Saturday: 6:00\u2009–\u200911:00\u202fPM', 'Sunday: 6:00\u2009–\u200911:00\u202fPM']","['restaurant', 'food', 'point_of_interest', 'establishment']",3.7,78,,,
ChIJP2uhdAAZQjER9nWQognGzY4,Cà phê Hoàng Long,"44 Cù Chính Lan, Hòa Khê, Thanh Khê, Đà Nẵng 550000, Vietnam",16.0653757,108.1901717,"['Monday: 5:00\u202fAM\u2009–\u200910:00\u202fPM', 'Tuesday: 5:00\u202fAM\u2009–\u200910:00\u202fPM', 'Wednesday: 5:00\u202fAM\u2009–\u200910:00\u202fPM', 'Thursday: 5:00\u202fAM\u2009–\u200910:00\u202fPM', 'Friday: 5:00\u202fAM\u2009–\u200910:00\u202fPM', 'Saturday: 5:00\u202fAM\u2009–\u200910:00\u202fPM', 'Sunday: 5:00\u202fAM\u2009–\u200910:00\u202fPM']","['cafe', 'point_of_interest', 'food', 'store', 'establishment']",4.4,19,,,
ChIJPQw247sZQjERXlCopH3mlEc,Cafe VIP Vườn,"34 Nguyễn Hữu Thọ, Hòa Thuận Nam, Hải Châu, Đà Nẵng 550000, Vietnam",16.0553013,108.2086607,"['Monday: 6:30\u202fAM\u2009–\u200910:00\u202fPM', 'Tuesday: 6:30\u202fAM\u2009–\u200910:00\u202fPM', 'Wednesday: 6:30\u202fAM\u2009–\u200910:00\u202fPM', 'Thursday: 6:30\u202fAM\u2009–\u200910:00\u202fPM', 'Friday: 6:30\u202fAM\u2009–\u200910:00\u202fPM', 'Saturday: 6:30\u202fAM\u2009–\u200910:00\u202fPM', 'Sunday: 6:30\u202fAM\u2009–\u200910:00\u202fPM']","['cafe', 'point_of_interest', 'food', 'establishment']",3.8,461,,,
ChIJPwlvPjMYQjERE56T1OCbYpM,Nhà Hàng Chay Ngọc Chi,"202 Hoàng Diệu, Nam Dương, Hải Châu, Đà Nẵng 550000, Vietnam",16.0618803,108.2174326,"['Monday: 7:00\u202fAM\u2009–\u20099:00\u202fPM', 'Tuesday: 7:00\u202fAM\u2009–\u20099:00\u202fPM', 'Wednesday: 7:00\u202fAM\u2009–\u20099:00\u202fPM', 'Thursday: 7:00\u202fAM\u2009–\u20099:00\u202fPM', 'Friday: 7:00\u202fAM\u2009–\u20099:00\u202fPM', 'Saturday: 7:00\u202fAM\u2009–\u20099:00\u202fPM', 'Sunday: 7:00\u202fAM\u2009–\u20099:00\u202fPM']","['restaurant', 'food', 'point_of_interest', 'establishment']",4.3,409,,,
ChIJQ7Wm3ssZQjERC5aR2l8cnno,Quán Cô Hồng - Gỏi Cá Nam Ô,"118 Huỳnh Thúc Kháng, Nam Dương, Hải Châu, Đà Nẵng 550000, Vietnam",16.0588475,108.2181053,"['Monday: 10:00\u202fAM\u2009–\u20099:30\u202fPM', 'Tuesday: 10:00\u202fAM\u2009–\u20099:30\u202fPM', 'Wednesday: 10:00\u202fAM\u2009–\u20099:30\u202fPM', 'Thursday: 10:00\u202fAM\u2009–\u20099:30\u202fPM', 'Friday: 10:00\u202fAM\u2009–\u20099:30\u202fPM', 'Saturday: 10:00\u202fAM\u2009–\u20099:30\u202fPM', 'Sunday: 10:00\u202fAM\u2009–\u20099:30\u202fPM']","['restaurant', 'point_of_interest', 'food', 'establishment']",4.2,236,,,
ChIJQVGko7wiQjERbWO_0jt8sfA,Quán Ăn Thiên Kim,"1 Yết Kiêu, Thọ Quang, Sơn Trà, Đà Nẵng, Vietnam",16.1217221,108.2193932,,"['restaurant', 'point_of_interest', 'food', 'establishment']",,,,,
ChIJQX32LsEZQjERZUF1GqPfJ6Q,Ao cá Bác Hồ,"Ao cá Bác Hồ, Hòa Cường, Hải Châu, Đà Nẵng 550000, Vietnam",16.0469212,108.2175957,,"['natural_feature', 'establishment']",5,1,,,
ChIJQzsobvkZQjERND1pAdW-1oo,Cà phê chim K69 Yến,"K 69 Lý Thái Tổ, Thạc Gián, Thanh Khê, Đà Nẵng 550000, Vietnam",16.0655938,108.2085581,,"['park', 'point_of_interest', 'establishment']",,,,,
ChIJR1aq9sMZQjERm5CGfBs-Qi4,Mỳ Quảng Quê Xưa,"165 Núi Thành, Hoà Cường Bắc, Hải Châu, Đà Nẵng 550000, Vietnam",16.046858,108.2212214,"['Monday: 6:00\u202fAM\u2009–\u200910:30\u202fPM', 'Tuesday: 6:00\u202fAM\u2009–\u200910:30\u202fPM', 'Wednesday: 6:00\u202fAM\u2009–\u200910:30\u202fPM', 'Thursday: 6:00\u202fAM\u2009–\u200910:30\u202fPM', 'Friday: 6:00\u202fAM\u2009–\u200910:30\u202fPM', 'Saturday: 6:00\u202fAM\u2009–\u200910:30\u202fPM', 'Sunday: 6:00\u202fAM\u2009–\u200910:30\u202fPM']","['restaurant', 'point_of_interest', 'food', 'establishment']",4.2,1093,,,
ChIJRRk-wbQZQjERiK2JvqU3lZ0,Thac Gian Lake,"Thac Gian Lake, Thạc Gián, Thanh Khê District, Da Nang 550000, Vietnam",16.0634563,108.2097653,,"['natural_feature', 'establishment']",3.6,9,,,
ChIJRTc80gAZQjERmRsZNm007GE,Công viên Quang Trung,"Hồ phun nước, Thạch Thang, Hải Châu, Đà Nẵng 550000, Vietnam",16.0730989,108.2132104,,"['park', 'point_of_interest', 'establishment']",5,1,,,
ChIJRZhHIMkZQjERYBH-5S1xKNg,Pho Da Temple,"340 Phan Châu Trinh, Bình Thuận, Hải Châu, Đà Nẵng 550000, Vietnam",16.0559509,108.2186556,,"['tourist_attraction', 'place_of_worship', 'point_of_interest', 'establishment']",4.5,122,,,
ChIJRabT_K49QjERLyx1N_nFewk,Nhà hàng Bãi Rạng Hồ Bình,"Hoàng Sa, Thọ Quang, Sơn Trà, Đà Nẵng, Vietnam",16.1056084,108.2908171,"['Monday: 7:00\u202fAM\u2009–\u20098:30\u202fPM', 'Tuesday: 7:00\u202fAM\u2009–\u20098:00\u202fPM', 'Wednesday: 7:00\u202fAM\u2009–\u20098:00\u202fPM', 'Thursday: 7:00\u202fAM\u2009–\u20098:00\u202fPM', 'Friday: 7:00\u202fAM\u2009–\u20098:00\u202fPM', 'Saturday: 7:00\u202fAM\u2009–\u20098:00\u202fPM', 'Sunday: 7:00\u202fAM\u2009–\u20098:00\u202fPM']","['restaurant', 'food', 'point_of_interest', 'establishment']",3.6,301,,,
ChIJS-wc8HMZQjER8nGFOiFoXmk,Vườn rau Bác Hồ,"26W9+G38, Hoà Cường Bắc, Hải Châu, Đà Nẵng 550000, Vietnam",16.0462945,108.2176884,,"['park', 'point_of_interest', 'establishment']",,,,,
ChIJS0W_PlEZQjERNocT1rjxDB4,Bạch đằng,"64 Thi Sách, Hòa Thuận Nam, Hải Châu, Đà Nẵng 550000, Vietnam",16.0540721,108.2054827,,"['tourist_attraction', 'point_of_interest', 'establishment']",,,,,
ChIJSQbmJ7siQjERFwswTbCCE18,Quán Ut Lan,"Thọ Quang, Sơn Trà, Da Nang, Vietnam",16.1211719,108.2228539,,"['restaurant', 'food', 'point_of_interest', 'establishment']",,,,,
ChIJSRWy6Hr3QTERiU3vuI0PbHw,Ecological Tourist Zone Lai Thieu,"XX4G+F5Q, Hoà Phú, Hòa Vang, Da Nang, Vietnam",15.9562015,107.9754714,,"['rv_park', 'lodging', 'point_of_interest', 'establishment']",3.8,164,,,
ChIJSSaN5u4ZQjERQkKpcWuRjqY,Nhà lưu niệm cụ Nguyễn Xuân Hữu,"127 Đường Nguyễn Xuân Hữu, Hòa Thọ Đông, Cẩm Lệ, Đà Nẵng 550000, Vietnam",16.0587229,108.1809719,,"['museum', 'point_of_interest', 'establishment']",1,1,,,
ChIJT6cYeoEZQjERIUGCw0OU5Qo,Quảng trường Hoa Hồng,"363J+J3G, ĐL Hoa Hồng, An Hải, Sơn Trà, Đà Nẵng 550000, Vietnam",16.0540578,108.2302096,,"['park', 'point_of_interest', 'establishment']",5,1,,,
ChIJT_s-n7wiQjERu4J4JnqHlMg,Quán 02 Cảng Tiên Sa,"1 Yết Kiêu, Thọ Quang, Sơn Trà, Đà Nẵng, Vietnam",16.1217221,108.2193932,,"['food', 'point_of_interest', 'establishment']",,,,,
ChIJTdA1XgQZQjERbaa4Rc1FoOQ,Từ Đường Phan Tấn Lộc,"356J+4JX, Lê Thị Tính, Hòa Khê, Thanh Khê, Đà Nẵng 550000, Vietnam",16.0603549,108.1816044,,"['church', 'place_of_worship', 'point_of_interest', 'establishment']",,,,,
ChIJTdEIjH4ZQjERMQ5qnTUbHFU,Nguyen Van Troi Walking Bridge,"Nguyễn Văn Trỗi Bridge, Bắc Mỹ Phú, Sơn Trà, Đà Nẵng 550000, Vietnam",16.0510826,108.2290629,"['Monday: Open 24 hours', 'Tuesday: Open 24 hours', 'Wednesday: Open 24 hours', 'Thursday: Open 24 hours', 'Friday: Open 24 hours', 'Saturday: Open 24 hours', 'Sunday: Open 24 hours']","['tourist_attraction', 'point_of_interest', 'establishment']",4.8,76,,,
ChIJU1u3wkQZQjERhnUNFVvmmfM,SUMMER COFFEE,"79 Man Thiện, Hòa Thuận Nam, Hải Châu, Đà Nẵng 550000, Vietnam",16.0539591,108.2060359,"['Monday: 6:30\u202fAM\u2009–\u200912:00\u202fPM', 'Tuesday: 6:30\u202fAM\u2009–\u200912:00\u202fPM', 'Wednesday: 6:30\u202fAM\u2009–\u200912:00\u202fPM', 'Thursday: 6:30\u202fAM\u2009–\u200912:00\u202fPM', 'Friday: 6:30\u202fAM\u2009–\u200912:00\u202fPM', 'Saturday: 6:30\u202fAM\u2009–\u200912:00\u202fPM', 'Sunday: 6:30\u202fAM\u2009–\u200912:00\u202fPM']","['cafe', 'point_of_interest', 'store', 'food', 'establishment']",4.8,6,,,
ChIJURsvWrcZQjERkVqXrnmsVj4,Cà Phê Cây Thông,"61 Nguyễn Hữu Thọ, Hòa Thuận Nam, Hải Châu, Đà Nẵng 550000, Vietnam",16.0541418,108.2089242,"['Monday: 6:00\u202fAM\u2009–\u200910:00\u202fPM', 'Tuesday: 6:00\u202fAM\u2009–\u200910:00\u202fPM', 'Wednesday: 6:00\u202fAM\u2009–\u200910:00\u202fPM', 'Thursday: 6:00\u202fAM\u2009–\u200910:00\u202fPM', 'Friday: 6:00\u202fAM\u2009–\u200910:00\u202fPM', 'Saturday: 6:00\u202fAM\u2009–\u200910:00\u202fPM', 'Sunday: 6:00\u202fAM\u2009–\u200910:00\u202fPM']","['cafe', 'point_of_interest', 'food', 'establishment']",4,45,,,
ChIJUXHKobwiQjERYE04vLpB7WM,Quán Ăn Hoàng Dung,"1 Yết Kiêu, Thọ Quang, Sơn Trà, Đà Nẵng, Vietnam",16.1217221,108.2193932,,"['restaurant', 'point_of_interest', 'food', 'establishment']",,,,,
ChIJUebzZJwZQjER30QrT8NIWG0,Làng Văn Coffee,"02 Nguyễn Phi Khanh, Thạc Gián, Thanh Khê, Đà Nẵng 550000, Vietnam",16.0559802,108.2067588,"['Monday: 7:00\u202fAM\u2009–\u20099:30\u202fPM', 'Tuesday: 7:00\u202fAM\u2009–\u20099:30\u202fPM', 'Wednesday: 7:00\u202fAM\u2009–\u20099:30\u202fPM', 'Thursday: 7:00\u202fAM\u2009–\u20099:30\u202fPM', 'Friday: 7:00\u202fAM\u2009–\u20099:30\u202fPM', 'Saturday: 7:00\u202fAM\u2009–\u20099:30\u202fPM', 'Sunday: 7:00\u202fAM\u2009–\u20099:30\u202fPM']","['cafe', 'food', 'point_of_interest', 'establishment']",3.3,6,,,
ChIJV8AWoCMYQjERNYj3s3nIwik,Hải sản Bé Sữa,"126 Nguyễn Đăng Giai, Thọ Quang, Sơn Trà, Đà Nẵng, Vietnam",16.1034919,108.2574535,"['Monday: 9:00\u202fAM\u2009–\u200911:00\u202fPM', 'Tuesday: 9:00\u202fAM\u2009–\u200911:00\u202fPM', 'Wednesday: 9:00\u202fAM\u2009–\u200911:00\u202fPM', 'Thursday: 9:00\u202fAM\u2009–\u200911:00\u202fPM', 'Friday: 9:00\u202fAM\u2009–\u200911:00\u202fPM', 'Saturday: 9:00\u202fAM\u2009–\u200911:00\u202fPM', 'Sunday: 9:00\u202fAM\u2009–\u200911:00\u202fPM']","['restaurant', 'food', 'point_of_interest', 'establishment']",3.8,298,,,
ChIJV9dGcIUZQjERkqByDMutjH4,Công viên Bắc Tượng đài 2 Tháng 9,"26RF+RG8, 30 Tháng 4, Hoà Cường Bắc, Hải Châu, Đà Nẵng 550000, Vietnam",16.0420277,108.2238363,,"['park', 'point_of_interest', 'establishment']",5,3,,,
ChIJVUWYpFEhQjERWfezJnshZpo,Hải Vân Pass,"Hải Vân Pass, Lăng Cô, Phú Lộc, Thua Thien Hue, Vietnam",16.2,108.133333,,"['natural_feature', 'establishment']",4.7,1435,,,
ChIJW_UcS7kZQjERpfYWsnYAIF0,Quán Đồng Quê,"46 Nguyễn Hữu Thọ, Hòa Thuận Nam, Hải Châu, Đà Nẵng 550000, Vietnam",16.0481312,108.2093638,"['Monday: 6:00\u202fAM\u2009–\u200910:00\u202fPM', 'Tuesday: 6:00\u202fAM\u2009–\u200910:00\u202fPM', 'Wednesday: 6:00\u202fAM\u2009–\u200910:00\u202fPM', 'Thursday: 6:00\u202fAM\u2009–\u200910:00\u202fPM', 'Friday: 6:00\u202fAM\u2009–\u200910:00\u202fPM', 'Saturday: 6:00\u202fAM\u2009–\u200910:00\u202fPM', 'Sunday: 6:00\u202fAM\u2009–\u200910:00\u202fPM']","['restaurant', 'food', 'point_of_interest', 'establishment']",4.1,173,,,
ChIJXRS5iQUZQjERcn2dgtA2BOk,Cà Phê Đen,"204 Nguyễn Phước Nguyên, Hòa Khê, Thanh Khê, Đà Nẵng 550000, Vietnam",16.0561551,108.1823585,"['Monday: 6:00\u202fAM\u2009–\u200910:00\u202fPM', 'Tuesday: 6:00\u202fAM\u2009–\u200910:00\u202fPM', 'Wednesday: 6:00\u202fAM\u2009–\u200910:00\u202fPM', 'Thursday: 6:00\u202fAM\u2009–\u200910:00\u202fPM', 'Friday: 6:00\u202fAM\u2009–\u200910:00\u202fPM', 'Saturday: 6:00\u202fAM\u2009–\u200910:00\u202fPM', 'Sunday: 6:00\u202fAM\u2009–\u200910:00\u202fPM']","['cafe', 'point_of_interest', 'store', 'food', 'establishment']",4,10,,,
ChIJX_rcYHQZQjERQXQ9UxHmHN4,Nhà Thờ Giáo Xứ Phước Tường,"311 Trường Chinh, An Khê, Thanh Khê, Đà Nẵng, Vietnam",16.0416211,108.1861027,,"['church', 'place_of_worship', 'point_of_interest', 'establishment']",4.5,82,,,
ChIJXdqykQs-QjER1NZVQLSa7hk,South Beach Son Tra,"473X+VJ5, Hoàng Sa, Thọ Quang, Sơn Trà, Đà Nẵng, Vietnam",16.1046475,108.2990988,,"['tourist_attraction', 'point_of_interest', 'establishment']",4.5,318,,,
ChIJXeu-ecX1QTERUMNJW2h_jXw,Thảo Nguyên Xanh Farm,"Thôn 1, Hòa Vang, Đà Nẵng 550000, Vietnam",16.056394,108.042292,"['Monday: Open 24 hours', 'Tuesday: Open 24 hours', 'Wednesday: Open 24 hours', 'Thursday: Open 24 hours', 'Friday: Open 24 hours', 'Saturday: Open 24 hours', 'Sunday: Open 24 hours']","['campground', 'park', 'lodging', 'point_of_interest', 'establishment']",,,,,
ChIJY2jrw8gZQjER1dPG2ZGZemM,Cầu Thuận Phước Đà Nẵng,"36WC+24F, Cầu, Thuận Phước, Hải Châu, Đà Nẵng 550000, Vietnam",16.0950591,108.2203065,"['Monday: Open 24 hours', 'Tuesday: Open 24 hours', 'Wednesday: Open 24 hours', 'Thursday: Open 24 hours', 'Friday: Open 24 hours', 'Saturday: Open 24 hours', 'Sunday: Open 24 hours']","['point_of_interest', 'establishment']",4.7,84,,,
ChIJY3yT3IweQjERnbDRpKk8b3A,Nhà thờ Phú Thượng,"AH1, Hoà Sơn, Hòa Vang, Đà Nẵng, Vietnam",16.0504981,108.1037059,,"['church', 'place_of_worship', 'point_of_interest', 'establishment']",4.4,110,,,
ChIJYcJcqTYYQjERtEUOvQMw-qg,Nha Nam Book N’ Coffee,"19 Pasteur, Hải Châu 1, Hải Châu, Đà Nẵng 550000, Vietnam",16.0698642,108.2192507,"['Monday: 7:00\u202fAM\u2009–\u200910:00\u202fPM', 'Tuesday: 7:00\u202fAM\u2009–\u200910:00\u202fPM', 'Wednesday: 7:00\u202fAM\u2009–\u200910:00\u202fPM', 'Thursday: 7:00\u202fAM\u2009–\u200910:00\u202fPM', 'Friday: 7:00\u202fAM\u2009–\u200910:00\u202fPM', 'Saturday: 7:00\u202fAM\u2009–\u200910:00\u202fPM', 'Sunday: 7:00\u202fAM\u2009–\u200910:00\u202fPM']","['cafe', 'point_of_interest', 'food', 'establishment']",4.3,267,,,
ChIJZ4Z5SssZQjERAIcMsBAH1JM,Thuy Vegan Restaurant,"122 Hoàng Diệu, Hải Châu 2, Hải Châu, Đà Nẵng 550000, Vietnam",16.0639028,108.218257,"['Monday: 7:00\u202fAM\u2009–\u20099:30\u202fPM', 'Tuesday: 7:00\u202fAM\u2009–\u20099:30\u202fPM', 'Wednesday: 7:00\u202fAM\u2009–\u20099:30\u202fPM', 'Thursday: 7:00\u202fAM\u2009–\u20099:30\u202fPM', 'Friday: 7:00\u202fAM\u2009–\u20099:30\u202fPM', 'Saturday: 7:00\u202fAM\u2009–\u20099:30\u202fPM', 'Sunday: 7:00\u202fAM\u2009–\u20099:30\u202fPM']","['restaurant', 'food', 'point_of_interest', 'establishment']",4,501,,,
ChIJZawrhc4ZQjERu5XP5jPZmxc,Bushido restaurant,"90 Đ. 2 Tháng 9, Bình Thuận, Hải Châu, Đà Nẵng 550000, Vietnam",16.0563483,108.2220345,"['Monday: 10:00\u202fAM\u2009–\u200910:00\u202fPM', 'Tuesday: 10:00\u202fAM\u2009–\u200910:00\u202fPM', 'Wednesday: 10:00\u202fAM\u2009–\u200910:00\u202fPM', 'Thursday: 10:00\u202fAM\u2009–\u200910:00\u202fPM', 'Friday: 10:00\u202fAM\u2009–\u200910:00\u202fPM', 'Saturday: 10:00\u202fAM\u2009–\u200910:00\u202fPM', 'Sunday: 10:00\u202fAM\u2009–\u200910:00\u202fPM']","['restaurant', 'food', 'point_of_interest', 'establishment']",4,254,,,
ChIJZwgAA9QZQjERUp28UE3NUvU,Công viên Tân Hòa,"25RQ+6C4, An Khê, Thanh Khê District, Da Nang, Vietnam",16.0405159,108.1885894,,"['park', 'point_of_interest', 'establishment']",5,1,,,
ChIJ_XkaoQs-QjER_IUTHqI3gI8,Mũi Nghê,"Thọ Quang, Sơn Trà, Đà Nẵng, Vietnam",16.1179892,108.3383401,"['Monday: Open 24 hours', 'Tuesday: Open 24 hours', 'Wednesday: Open 24 hours', 'Thursday: Open 24 hours', 'Friday: Open 24 hours', 'Saturday: Open 24 hours', 'Sunday: Open 24 hours']","['tourist_attraction', 'point_of_interest', 'establishment']",4.7,247,,,
ChIJ_ZnpIjMYQjERA9TfxGiIYD8,Nhà Hàng Lê Ben,"126 Yên Bái, Phước Ninh, Hải Châu, Đà Nẵng 550000, Vietnam",16.0648101,108.2222519,,"['restaurant', 'point_of_interest', 'food', 'establishment']",,,,,
ChIJ_d6A7E8XQjERSP_olhmXg6o,Galina Mud Bath & Spa Da Nang,"254 Võ Nguyên Giáp, Phước Mỹ, Sơn Trà, Đà Nẵng 550000, Vietnam",16.0597734,108.2463747,,"['beauty_salon', 'point_of_interest', 'establishment']",2.5,2,,,
ChIJ_db_J8YZQjERA3ZgbpTXKJc,Banh Ca Soc Nau,"467 Hoàng Diệu, Bình Thuận, Hải Châu, Đà Nẵng 550000, Vietnam",16.0530367,108.2177356,"['Monday: Open 24 hours', 'Tuesday: Open 24 hours', 'Wednesday: Open 24 hours', 'Thursday: Open 24 hours', 'Friday: Open 24 hours', 'Saturday: Open 24 hours', 'Sunday: Open 24 hours']","['restaurant', 'food', 'point_of_interest', 'establishment']",4.2,64,,,
ChIJ_ws7qWb3QTERKF5_i9GOiAk,Hoa Phu Thanh Tourism,"QL14G, Hoà Phú, Hòa Vang, Đà Nẵng, Vietnam",15.9567747,107.9911844,"['Monday: 7:30\u202fAM\u2009–\u20095:00\u202fPM', 'Tuesday: 7:00\u202fAM\u2009–\u20095:00\u202fPM', 'Wednesday: 7:30\u202fAM\u2009–\u20095:00\u202fPM', 'Thursday: 7:30\u202fAM\u2009–\u20095:00\u202fPM', 'Friday: 7:30\u202fAM\u2009–\u20095:00\u202fPM', 'Saturday: 7:30\u202fAM\u2009–\u20095:00\u202fPM', 'Sunday: 7:30\u202fAM\u2009–\u20095:00\u202fPM']","['rv_park', 'cafe', 'lodging', 'restaurant', 'point_of_interest', 'food', 'establishment']",4.3,270,,,
ChIJa1ssAEIZQjERSzmynMqU6zI,Vườn Lan Paradise,"294 Điện Biên Phủ, Chính Gián, Thanh Khê, Đà Nẵng 550000, Vietnam",16.0665238,108.1939107,,"['park', 'point_of_interest', 'establishment']",,,,,
ChIJaT2dwioZQjEROPORQWw6XZc,nhà thờ an hòa,"h18, 17 Trường Chinh, An Khê, Cẩm Lệ, Đà Nẵng 550000, Vietnam",16.0468625,108.184781,,"['church', 'place_of_worship', 'point_of_interest', 'establishment']",,,,,
ChIJaUDBNkwYQjERNButpWQvSN4,Ẩm thực Trần,"300 Hải Phòng, Chính Gián, Thanh Khê, Đà Nẵng 550000, Vietnam",16.0691882,108.2050687,"['Monday: 7:00\u202fAM\u2009–\u200910:30\u202fPM', 'Tuesday: 7:00\u202fAM\u2009–\u200910:30\u202fPM', 'Wednesday: 7:00\u202fAM\u2009–\u200910:30\u202fPM', 'Thursday: 7:00\u202fAM\u2009–\u200910:30\u202fPM', 'Friday: 7:00\u202fAM\u2009–\u200910:30\u202fPM', 'Saturday: 7:00\u202fAM\u2009–\u200910:30\u202fPM', 'Sunday: 7:00\u202fAM\u2009–\u200910:30\u202fPM']","['restaurant', 'food', 'point_of_interest', 'establishment']",4.2,63,,,
ChIJaV_Jo8gZQjERtDWMcdLRT1U,Hoa Thuan Church,"231 Trưng Nữ Vương, Hòa Thuận Đông, Hải Châu, Đà Nẵng 550000, Vietnam",16.0531754,108.2186259,,"['church', 'place_of_worship', 'point_of_interest', 'establishment']",4.6,35,,,
ChIJaZrfVrEZQjERNznXwIyT7Vc,Công viên Hòa Cường Bắc,"20 Lê Bá Trinh, Hoà Cường Bắc, Hải Châu, Đà Nẵng 550000, Vietnam",16.043412,108.21958,,"['park', 'point_of_interest', 'establishment']",,,,,
ChIJaa7lANcXQjERmT3kgV5U7uA,Dong Dinh Art Museum,"472G+HC8, Hoàng Sa, Thọ Quang, Sơn Trà, Đà Nẵng, Vietnam",16.1014105,108.2760874,"['Monday: 8:00\u202fAM\u2009–\u20095:00\u202fPM', 'Tuesday: 8:00\u202fAM\u2009–\u20095:00\u202fPM', 'Wednesday: 8:00\u202fAM\u2009–\u20095:00\u202fPM', 'Thursday: 8:00\u202fAM\u2009–\u20095:00\u202fPM', 'Friday: 8:00\u202fAM\u2009–\u20095:00\u202fPM', 'Saturday: 8:00\u202fAM\u2009–\u20095:00\u202fPM', 'Sunday: 8:00\u202fAM\u2009–\u20095:00\u202fPM']","['tourist_attraction', 'museum', 'point_of_interest', 'establishment']",4.1,363,,,
ChIJb7mLMCQfQjERjYQ7zrWaC88,Cafe New Life 424,"424 Âu Cơ, Hoà Khánh Bắc, Liên Chiểu, Đà Nẵng, Vietnam",16.0788079,108.1275156,,"['cafe', 'point_of_interest', 'food', 'establishment']",4,32,,,
ChIJbbs1ZTQYQjERi3OdfmnRk2g,Hai Chau Village Hall,"3699+3MQ, K48 Phan Châu Trinh, Hải Châu 1, Hải Châu, Đà Nẵng 550000, Vietnam",16.0677019,108.2192454,,"['tourist_attraction', 'point_of_interest', 'establishment']",4.4,34,,,
ChIJbdTD_pUZQjERECFq8ogKLuw,Nhà Thờ Tộc Võ Văn,"35 Ngô Thế Vinh, Hoà Cường Bắc, Hải Châu, Đà Nẵng 550000, Vietnam",16.0423189,108.2083879,,"['church', 'place_of_worship', 'point_of_interest', 'establishment']",,,,,
ChIJc9GLSAAZQjERUfAdAbcy2xo,Thuy Trang Coffee Shop,"98, Cu Chinh Lan Street, Hoa Khe Ward, Thanh Khe District, Hòa Khê, Thanh Khê, Đà Nẵng 550000, Vietnam",16.0653454,108.1880105,"['Monday: Open 24 hours', 'Tuesday: Open 24 hours', 'Wednesday: Open 24 hours', 'Thursday: Open 24 hours', 'Friday: Open 24 hours', 'Saturday: Open 24 hours', 'Sunday: Open 24 hours']","['cafe', 'point_of_interest', 'food', 'establishment']",4.1,8,,,
ChIJcS1UmjQYQjER1fpZXq5x4Ds,Mỳ Quảng Bà Mua,"19-21 Trần Bình Trọng, Phước Ninh, Hải Châu, Đà Nẵng 550000, Vietnam",16.0659789,108.2191595,"['Monday: 6:00\u202fAM\u2009–\u200910:00\u202fPM', 'Tuesday: 6:00\u202fAM\u2009–\u200910:00\u202fPM', 'Wednesday: 6:00\u202fAM\u2009–\u200910:00\u202fPM', 'Thursday: 6:00\u202fAM\u2009–\u200910:00\u202fPM', 'Friday: 6:00\u202fAM\u2009–\u200910:00\u202fPM', 'Saturday: 6:00\u202fAM\u2009–\u200910:00\u202fPM', 'Sunday: 6:00\u202fAM\u2009–\u200910:00\u202fPM']","['restaurant', 'point_of_interest', 'food', 'establishment']",3.9,806,,,
ChIJcTc4JSMZQjERsYhqWXeDERY,Hung Vuong 公園,"369C+9HW, Hải Châu 1, Hải Châu, Đà Nẵng 550000, Vietnam",16.0684964,108.2214686,,"['park', 'point_of_interest', 'establishment']",4.6,8,,,
ChIJcVJkUPcXQjERsA8_dfySw5E,3D Museum Art in paradise Da Nang,"Lô 10, Trần Nhân Tông, Thọ Quang, Sơn Trà, Đà Nẵng, Vietnam",16.0954282,108.2431088,"['Monday: 9:00\u202fAM\u2009–\u20095:30\u202fPM', 'Tuesday: 9:00\u202fAM\u2009–\u20095:30\u202fPM', 'Wednesday: 9:00\u202fAM\u2009–\u20095:30\u202fPM', 'Thursday: 9:00\u202fAM\u2009–\u20095:30\u202fPM', 'Friday: 9:00\u202fAM\u2009–\u20095:30\u202fPM', 'Saturday: 9:00\u202fAM\u2009–\u20095:30\u202fPM', 'Sunday: 9:00\u202fAM\u2009–\u20095:30\u202fPM']","['tourist_attraction', 'museum', 'point_of_interest', 'establishment']",4.3,1993,,,
ChIJcX5KWskZQjERBp15jBCWYKg,Samdi,"292 Phan Châu Trinh, Bình Hiên, Hải Châu, Đà Nẵng 550000, Vietnam",16.0581999,108.2189718,"['Monday: Open 24 hours', 'Tuesday: Open 24 hours', 'Wednesday: Open 24 hours', 'Thursday: Open 24 hours', 'Friday: Open 24 hours', 'Saturday: Open 24 hours', 'Sunday: Open 24 hours']","['restaurant', 'food', 'point_of_interest', 'establishment']",4.3,28,,,
ChIJceEUyOsZQjERVItd_N6OaU8,Homies.co,"110, 23/3A Phan Thanh, Thạc Gián, Thanh Khê, Đà Nẵng 550000, Vietnam",16.06163,108.2078161,"['Monday: 8:30\u202fAM\u2009–\u20094:30\u202fPM', 'Tuesday: 8:30\u202fAM\u2009–\u20094:30\u202fPM', 'Wednesday: 8:30\u202fAM\u2009–\u20094:30\u202fPM', 'Thursday: 8:30\u202fAM\u2009–\u20094:30\u202fPM', 'Friday: 8:30\u202fAM\u2009–\u20094:30\u202fPM', 'Saturday: 8:30\u202fAM\u2009–\u20094:30\u202fPM', 'Sunday: Closed']","['park', 'point_of_interest', 'establishment']",5,1,,,
ChIJcw0FdkgYQjERhr14f9cMXK0,Nội Hà Church,"40 Đinh Tiên Hoàng, Thanh Bình, Hải Châu, Đà Nẵng 550000, Vietnam",16.0754663,108.2110062,,"['church', 'place_of_worship', 'point_of_interest', 'establishment']",4.5,31,,,
ChIJdXxjYLsiQjERtapohotjU74,Cà Phê Ánh Hồng,"1 Yết Kiêu, Thọ Quang, Sơn Trà, Đà Nẵng, Vietnam",16.12213,108.2201224,,"['cafe', 'food', 'point_of_interest', 'establishment']",,,,,
ChIJdw_0FdkXQjER7aGIqdQu3T0,Bãi Cháy,"4729+9GF, Hoàng Sa, Thọ Quang, Sơn Trà, Đà Nẵng, Vietnam",16.1009412,108.2687841,,"['campground', 'park', 'lodging', 'point_of_interest', 'establishment']",4.5,114,,,
ChIJe6UbJrUZQjERqEOSbn2CxE0,Ngõ,"5 Quang Dũng, Vĩnh Trung, Thanh Khê, Đà Nẵng 550000, Vietnam",16.0642079,108.2113442,"['Monday: 6:00\u202fAM\u2009–\u200911:00\u202fPM', 'Tuesday: 6:00\u202fAM\u2009–\u200911:00\u202fPM', 'Wednesday: 6:00\u202fAM\u2009–\u200911:00\u202fPM', 'Thursday: 6:00\u202fAM\u2009–\u200911:00\u202fPM', 'Friday: 6:00\u202fAM\u2009–\u200911:00\u202fPM', 'Saturday: 6:00\u202fAM\u2009–\u200911:00\u202fPM', 'Sunday: 6:00\u202fAM\u2009–\u200911:00\u202fPM']","['cafe', 'food', 'point_of_interest', 'store', 'establishment']",3.7,50,,,
ChIJeSWjerkZQjERQockAhpm40I,Nhà Hàng Tuấn Mập,"85 Duy Tân, Hòa Thuận Nam, Hải Châu, Đà Nẵng 550000, Vietnam",16.0503034,108.2084754,"['Monday: 10:00\u202fAM\u2009–\u200911:00\u202fPM', 'Tuesday: 10:00\u202fAM\u2009–\u200911:00\u202fPM', 'Wednesday: 10:00\u202fAM\u2009–\u200911:00\u202fPM', 'Thursday: 10:00\u202fAM\u2009–\u200911:00\u202fPM', 'Friday: 10:00\u202fAM\u2009–\u200911:00\u202fPM', 'Saturday: 10:00\u202fAM\u2009–\u200911:00\u202fPM', 'Sunday: 10:00\u202fAM\u2009–\u200911:00\u202fPM']","['restaurant', 'point_of_interest', 'food', 'establishment']",3.8,686,,,
ChIJf-GHukcYQjERyQoRvi6SumQ,EZI - Cửa hàng cà phê & trà sữa,"30 Ông Ích Khiêm, Thanh Bình, Hải Châu, Đà Nẵng 550000, Vietnam",16.078074,108.211747,"['Monday: 7:30\u202fAM\u2009–\u200910:30\u202fPM', 'Tuesday: 7:30\u202fAM\u2009–\u200910:30\u202fPM', 'Wednesday: 7:30\u202fAM\u2009–\u200910:30\u202fPM', 'Thursday: 7:30\u202fAM\u2009–\u200910:30\u202fPM', 'Friday: 7:30\u202fAM\u2009–\u200910:30\u202fPM', 'Saturday: 7:30\u202fAM\u2009–\u200910:30\u202fPM', 'Sunday: 7:30\u202fAM\u2009–\u200910:30\u202fPM']","['cafe', 'food', 'store', 'point_of_interest', 'establishment']",4.4,486,,,
ChIJf9mvDuUjQjERPtxYAd3kEM0,"Quảng Liên (Restaurant, Motorbike rental)","Tien Sa Port, 1 Yết Kiêu, Thọ Quang, Sơn Trà, Đà Nẵng 550000, Vietnam",16.121721,108.2193993,"['Monday: 6:00\u202fAM\u2009–\u200912:00\u202fAM', 'Tuesday: 6:00\u202fAM\u2009–\u200912:00\u202fAM', 'Wednesday: 6:00\u202fAM\u2009–\u200912:00\u202fAM', 'Thursday: 6:00\u202fAM\u2009–\u200912:00\u202fAM', 'Friday: 6:00\u202fAM\u2009–\u200912:00\u202fAM', 'Saturday: 6:00\u202fAM\u2009–\u200912:00\u202fAM', 'Sunday: 6:00\u202fAM\u2009–\u200912:00\u202fAM']","['restaurant', 'point_of_interest', 'food', 'establishment']",5,1,,,
ChIJfWLaOs8ZQjERFiow_e52r54,Ăn vặt 3colu,"36 Nguyễn Bá Học, Bình Thuận, Hải Châu, Đà Nẵng 550000, Vietnam",16.0546775,108.2206855,"['Monday: 3:30\u2009–\u20099:30\u202fPM', 'Tuesday: 3:30\u2009–\u20099:30\u202fPM', 'Wednesday: 3:30\u2009–\u20099:30\u202fPM', 'Thursday: 3:30\u2009–\u20099:30\u202fPM', 'Friday: 3:30\u2009–\u20099:30\u202fPM', 'Saturday: 3:30\u2009–\u20099:30\u202fPM', 'Sunday: 3:30\u2009–\u20099:30\u202fPM']","['restaurant', 'point_of_interest', 'food', 'establishment']",,,,,
ChIJf_EWJM0ZQjERbBl1k_zLzyM,Red Sky Steakhouse,"248 Đ. Trần Phú, Phước Ninh, Hải Châu, Đà Nẵng 550000, Vietnam",16.062867,108.2231386,"['Monday: 11:00\u202fAM\u2009–\u20092:00\u202fPM, 5:00\u2009–\u200911:00\u202fPM', 'Tuesday: 11:00\u202fAM\u2009–\u20092:00\u202fPM, 5:00\u2009–\u200911:00\u202fPM', 'Wednesday: 11:00\u202fAM\u2009–\u20092:00\u202fPM, 5:00\u2009–\u200911:00\u202fPM', 'Thursday: 11:00\u202fAM\u2009–\u20092:00\u202fPM, 5:00\u2009–\u200911:00\u202fPM', 'Friday: 11:00\u202fAM\u2009–\u20092:00\u202fPM, 5:00\u2009–\u200911:00\u202fPM', 'Saturday: 11:00\u202fAM\u2009–\u20092:00\u202fPM, 5:00\u2009–\u200911:00\u202fPM', 'Sunday: 11:00\u202fAM\u2009–\u20092:00\u202fPM, 5:00\u2009–\u200911:00\u202fPM']","['restaurant', 'point_of_interest', 'food', 'establishment']",4.4,581,,,
ChIJfbqUtOv1QTER7NLDlMol9zw,Gikasun Garden 1,"Hòa Ninh, Hòa Vang, Da Nang, Vietnam",16.0580224,108.0441535,"['Monday: 7:00\u202fAM\u2009–\u200910:00\u202fPM', 'Tuesday: 7:00\u202fAM\u2009–\u200910:00\u202fPM', 'Wednesday: 7:00\u202fAM\u2009–\u200910:00\u202fPM', 'Thursday: 7:00\u202fAM\u2009–\u200910:00\u202fPM', 'Friday: 7:00\u202fAM\u2009–\u200910:00\u202fPM', 'Saturday: 7:00\u202fAM\u2009–\u200910:00\u202fPM', 'Sunday: 8:00\u202fAM\u2009–\u20099:30\u202fPM']","['park', 'point_of_interest', 'establishment']",,,,,
ChIJffFqarkZQjER-8sk7RWCNbk,Napoli Coffee,"31 Nguyễn Hữu Thọ, Hòa Thuận Nam, Hải Châu, Đà Nẵng 550000, Vietnam",16.0552828,108.2086722,"['Monday: 8:00\u202fAM\u2009–\u200910:00\u202fPM', 'Tuesday: 8:00\u202fAM\u2009–\u200910:00\u202fPM', 'Wednesday: 8:00\u202fAM\u2009–\u200910:00\u202fPM', 'Thursday: 8:00\u202fAM\u2009–\u200910:00\u202fPM', 'Friday: 8:00\u202fAM\u2009–\u200910:00\u202fPM', 'Saturday: 8:00\u202fAM\u2009–\u200910:00\u202fPM', 'Sunday: 8:00\u202fAM\u2009–\u200910:00\u202fPM']","['cafe', 'food', 'point_of_interest', 'establishment']",3.9,20,,,
ChIJg0mY6HIZQjERi32p6NWCCLs,Đầu cầu Phú Lộc,"359P+C89, Thanh Khê Đông, Thanh Khê District, Da Nang, Vietnam",16.068549,108.1858582,,"['tourist_attraction', 'point_of_interest', 'establishment']",,,,,
ChIJg9-8ws4ZQjERi4YndBXc89c,Cafe Cỏ Hoa,"12B Nguyễn Thiện Thuật, Bình Hiên, Hải Châu, Đà Nẵng 825545, Vietnam",16.0565631,108.2213121,"['Monday: 6:00\u202fAM\u2009–\u20099:00\u202fPM', 'Tuesday: 6:00\u202fAM\u2009–\u20099:00\u202fPM', 'Wednesday: 6:00\u202fAM\u2009–\u20099:00\u202fPM', 'Thursday: 6:00\u202fAM\u2009–\u20099:00\u202fPM', 'Friday: 6:00\u202fAM\u2009–\u20099:00\u202fPM', 'Saturday: 6:00\u202fAM\u2009–\u20099:00\u202fPM', 'Sunday: 6:00\u202fAM\u2009–\u20099:00\u202fPM']","['cafe', 'food', 'point_of_interest', 'store', 'establishment']",4.1,51,,,
ChIJg9jYxYQeQjERWZ7nmTRePiw,Quán Cô Thúy,"24P4+GH3, AH1, Phú Hạ, Hòa Vang, Đà Nẵng, Vietnam",16.0362602,108.1064317,"['Monday: 6:30\u202fAM\u2009–\u200910:00\u202fPM', 'Tuesday: 6:30\u202fAM\u2009–\u200910:00\u202fPM', 'Wednesday: 6:30\u202fAM\u2009–\u200910:00\u202fPM', 'Thursday: 6:30\u202fAM\u2009–\u200910:00\u202fPM', 'Friday: 6:30\u202fAM\u2009–\u200910:00\u202fPM', 'Saturday: 6:30\u202fAM\u2009–\u200910:00\u202fPM', 'Sunday: 6:30\u202fAM\u2009–\u200910:00\u202fPM']","['restaurant', 'food', 'point_of_interest', 'establishment']",3.8,29,,,
ChIJgRyzBl8ZQjERJF9sFGvE4R8,Mỳ Quảng Cô Sáu,"397 Đ. Trần Hưng Đạo, An Hải Trung, Sơn Trà, Đà Nẵng 550000, Vietnam",16.0661787,108.2296635,"['Monday: 6:00\u202fAM\u2009–\u200911:00\u202fPM', 'Tuesday: 6:00\u202fAM\u2009–\u200911:00\u202fPM', 'Wednesday: 6:00\u202fAM\u2009–\u200911:00\u202fPM', 'Thursday: 6:00\u202fAM\u2009–\u200911:00\u202fPM', 'Friday: 6:00\u202fAM\u2009–\u200911:00\u202fPM', 'Saturday: 6:00\u202fAM\u2009–\u200911:00\u202fPM', 'Sunday: 6:00\u202fAM\u2009–\u200911:00\u202fPM']","['restaurant', 'tourist_attraction', 'food', 'point_of_interest', 'establishment']",4.9,413,,,
ChIJgWTtaYEZQjER-Ib4Vhyfm1o,Quảng trường Bạch Đằng,"363F+JG6, Bạch Đằng, Hòa Thuận Đông, Hải Châu, Đà Nẵng 550000, Vietnam",16.0540265,108.223781,,"['park', 'point_of_interest', 'establishment']",4.6,14,,,
ChIJgavsxEcYQjERZ7SM4SrrJxE,Thanh Bình Catholic Church,"69 Cao Thắng, Thanh Bình, Hải Châu, Đà Nẵng 550000, Vietnam",16.0764686,108.2131655,,"['church', 'place_of_worship', 'point_of_interest', 'establishment']",4.6,74,,,
ChIJgcxSIOkZQjERG2x_d_h0Lvs,Công viên Khu C,"26V5+G7P, Hòa Thuận Nam, Hải Châu District, Da Nang 550000, Vietnam",16.0438428,108.2082169,,"['park', 'point_of_interest', 'establishment']",4.2,11,,,
ChIJgdDxDDYYQjERl3mItotrTq4,Bảo Tàng Lịch sử Đà Nẵng,"78, Lê Duẩn, Phường Thạch Thang, Thạch Thang, Hải Châu, Đà Nẵng 550000, Vietnam",16.0706791,108.2153696,,"['museum', 'point_of_interest', 'establishment']",,,,,
ChIJgfHwGJn3QTERsCByPksgYUY,Lotteria Bà Nà Hills,"Làng Pháp-Bà Nà Hill, Thôn An Sơn, Hòa Vang, Đà Nẵng, Vietnam",16.0484341,108.0121058,"['Monday: 8:30\u202fAM\u2009–\u20094:00\u202fPM', 'Tuesday: 8:30\u202fAM\u2009–\u20094:00\u202fPM', 'Wednesday: 8:30\u202fAM\u2009–\u20094:00\u202fPM', 'Thursday: 8:30\u202fAM\u2009–\u20094:00\u202fPM', 'Friday: 8:30\u202fAM\u2009–\u20094:00\u202fPM', 'Saturday: 8:30\u202fAM\u2009–\u20094:00\u202fPM', 'Sunday: 8:30\u202fAM\u2009–\u20094:00\u202fPM']","['restaurant', 'food', 'point_of_interest', 'establishment']",2.7,12,,,
ChIJgftgBDoYQjERxI5uaGMjV0M,Aquarium Coffee Da Nang,"69 Nguyễn Chí Thanh, Thạch Thang, Hải Châu, Đà Nẵng 550000, Vietnam",16.0760721,108.2205872,"['Monday: 7:00\u202fAM\u2009–\u200910:00\u202fPM', 'Tuesday: 7:00\u202fAM\u2009–\u200910:00\u202fPM', 'Wednesday: 7:00\u202fAM\u2009–\u200910:00\u202fPM', 'Thursday: 7:00\u202fAM\u2009–\u200910:00\u202fPM', 'Friday: 7:00\u202fAM\u2009–\u200910:00\u202fPM', 'Saturday: 7:00\u202fAM\u2009–\u200910:00\u202fPM', 'Sunday: 7:00\u202fAM\u2009–\u200910:00\u202fPM']","['cafe', 'store', 'point_of_interest', 'food', 'establishment']",4.1,182,,,
ChIJgwl9KAUZQjERuc361hxzCN0,Green Island Park,"Khu biệt thự Đảo Xanh, 26WG+WQW, Hòa Cường, Hải Châu, Đà Nẵng 550000, Vietnam",16.0473627,108.2269564,,"['park', 'point_of_interest', 'establishment']",5,1,,,
ChIJgxWgIPAZQjERFfGkym5IlOU,Golden Lotus Oriental Organic Spa 1,"209 Đ. Trần Phú, Phước Ninh, Hải Châu, Đà Nẵng 550000, Vietnam",16.0647031,108.2236424,"['Monday: 9:00\u202fAM\u2009–\u200910:00\u202fPM', 'Tuesday: 9:00\u202fAM\u2009–\u200910:00\u202fPM', 'Wednesday: 9:00\u202fAM\u2009–\u200910:00\u202fPM', 'Thursday: 9:00\u202fAM\u2009–\u200910:00\u202fPM', 'Friday: 9:00\u202fAM\u2009–\u200910:00\u202fPM', 'Saturday: 9:00\u202fAM\u2009–\u200910:00\u202fPM', 'Sunday: 9:00\u202fAM\u2009–\u200910:00\u202fPM']","['park', 'spa', 'point_of_interest', 'establishment']",4.9,2135,,,
ChIJgyd5qSwYQjERWjrZwzhyXKc,Chùa An Phước,"Mai Hắc Đế, An Hải Trung, Sơn Trà, Đà Nẵng 550000, Vietnam",16.0634876,108.231513,,"['tourist_attraction', 'place_of_worship', 'point_of_interest', 'establishment']",4.6,27,,,
ChIJh0Ls-NsXQjER3jo2SAmipQA,Green Lake Danang,"Hồ Xanh, Thọ Quang, Sơn Trà, Đà Nẵng, Vietnam",16.0986692,108.2680636,"['Monday: Open 24 hours', 'Tuesday: Open 24 hours', 'Wednesday: Open 24 hours', 'Thursday: Open 24 hours', 'Friday: Open 24 hours', 'Saturday: Open 24 hours', 'Sunday: Open 24 hours']","['tourist_attraction', 'point_of_interest', 'establishment']",4.3,643,,,
ChIJhQH1ecsZQjEReaeZrJLG8YQ,Deli Coffee House,"87 Đ. Lê Đình Dương, Phước Ninh, Hải Châu, Đà Nẵng 550000, Vietnam",16.0616231,108.2193091,"['Monday: 6:30\u202fAM\u2009–\u200910:00\u202fPM', 'Tuesday: 6:30\u202fAM\u2009–\u200910:00\u202fPM', 'Wednesday: 6:30\u202fAM\u2009–\u200910:00\u202fPM', 'Thursday: 6:30\u202fAM\u2009–\u200910:00\u202fPM', 'Friday: 6:30\u202fAM\u2009–\u200910:00\u202fPM', 'Saturday: 6:30\u202fAM\u2009–\u200910:00\u202fPM', 'Sunday: 6:30\u202fAM\u2009–\u200910:00\u202fPM']","['cafe', 'point_of_interest', 'food', 'establishment']",3.9,36,,,
ChIJhUsxrssZQjERKUuhxibO6o8,Chè Thái NaNa,"Nam Dương, Hải Châu District, Da Nang 550000, Vietnam",16.0612036,108.2177017,"['Monday: 8:30\u202fAM\u2009–\u200911:00\u202fPM', 'Tuesday: 8:30\u202fAM\u2009–\u200911:00\u202fPM', 'Wednesday: 8:30\u202fAM\u2009–\u200911:00\u202fPM', 'Thursday: 8:30\u202fAM\u2009–\u200911:00\u202fPM', 'Friday: 8:30\u202fAM\u2009–\u200911:00\u202fPM', 'Saturday: 8:30\u202fAM\u2009–\u200911:00\u202fPM', 'Sunday: 8:30\u202fAM\u2009–\u200911:00\u202fPM']","['cafe', 'food', 'point_of_interest', 'establishment']",4.4,235,,,
ChIJh_F46tsZQjERcXHI6Q89UB0,Công viên Lê Đình Dương,"366F+F4W, Đ. Lê Đình Dương, Bình Hiên, Hải Châu, Đà Nẵng 550000, Vietnam",16.0612285,108.2228422,,"['park', 'point_of_interest', 'establishment']",,,,,
ChIJhzFbup0ZQjERwvGlfhjDmW0,Cổng nhà truyền thống,"83 Duy Tân, Hòa Thuận Nam, Hải Châu, Đà Nẵng 550000, Vietnam",16.0508815,108.2073558,,"['church', 'place_of_worship', 'point_of_interest', 'establishment']",,,,,
ChIJi9yX7SUYQjERw0bDbvLlHB0,Chay Tâm Viên,"55 Đường Bế Văn Đàn, Chính Gián, Thanh Khê, Đà Nẵng 550000, Vietnam",16.065005,108.2001655,"['Monday: 6:30\u202fAM\u2009–\u20098:00\u202fPM', 'Tuesday: 6:30\u202fAM\u2009–\u20098:00\u202fPM', 'Wednesday: 6:30\u202fAM\u2009–\u20098:00\u202fPM', 'Thursday: 6:30\u202fAM\u2009–\u20098:00\u202fPM', 'Friday: 6:30\u202fAM\u2009–\u20098:00\u202fPM', 'Saturday: 6:30\u202fAM\u2009–\u20098:00\u202fPM', 'Sunday: 6:30\u202fAM\u2009–\u20098:00\u202fPM']","['restaurant', 'food', 'point_of_interest', 'establishment']",4.6,215,,,
ChIJiVEp-zsZQjERKKgVAGERFrE,Dragon Bridge,"27 Cầu Rồng, An Hải Trung, Sơn Trà, Đà Nẵng 550000, Vietnam",16.0611087,108.2274955,,"['tourist_attraction', 'point_of_interest', 'establishment']",4.7,36,,,
ChIJifHChkYjQjER0BSJjy9Xz80,Bãi Nhóm Lầy,"46WJ+7MJ, Thọ Quang, Sơn Trà, Đà Nẵng, Vietnam",16.1457005,108.2316379,,"['campground', 'lodging', 'park', 'point_of_interest', 'establishment']",4.1,7,,,
ChIJj7ice4r1QTERXfxVmdrDnWw,Nhà Thờ Mông Triệu,"325W+WX9, Hòa Ninh, Hòa Vang, Da Nang, Vietnam",16.0597868,108.0474724,,"['church', 'place_of_worship', 'point_of_interest', 'establishment']",4.3,8,,,
ChIJj9q0x0wYQjERjESxJ1b9wKc,Nhà Thờ Y Tổ Hải Thượng Lãng Ông,"10 Điện Biên Phủ, Chính Gián, Thanh Khê, Đà Nẵng 550000, Vietnam",16.066295,108.206277,,"['church', 'place_of_worship', 'point_of_interest', 'establishment']",5,2,,,
ChIJjT3cicwZQjERY8vPSqJmMqw,Cơm gà Bà Nguyệt,"49 Đường Lê Hồng Phong, Phước Ninh, Hải Châu, Đà Nẵng 550000, Vietnam",16.0638527,108.2210023,"['Monday: 9:00\u202fAM\u2009–\u200910:00\u202fPM', 'Tuesday: 9:00\u202fAM\u2009–\u200910:00\u202fPM', 'Wednesday: 9:00\u202fAM\u2009–\u200910:00\u202fPM', 'Thursday: 9:00\u202fAM\u2009–\u200910:00\u202fPM', 'Friday: 9:00\u202fAM\u2009–\u200910:00\u202fPM', 'Saturday: 9:00\u202fAM\u2009–\u200910:00\u202fPM', 'Sunday: 9:00\u202fAM\u2009–\u200910:00\u202fPM']","['restaurant', 'point_of_interest', 'food', 'establishment']",4.2,219,,,
ChIJjXTyYSwYQjERsJiypdjR8tE,Nhà Thờ Chu Tôn Tộc An Mỹ,"09 Nguyễn Thông, An Hải Trung, Sơn Trà, Đà Nẵng 550000, Vietnam",16.0661032,108.230379,,"['church', 'place_of_worship', 'point_of_interest', 'establishment']",,,,,
ChIJjYLbRQkZQjERizeVV4_zX_c,House In The Forest,"227 Lý Triện, Hòa Khê, Thanh Khê, Đà Nẵng 550000, Vietnam",16.0577036,108.186066,"['Monday: Open 24 hours', 'Tuesday: Open 24 hours', 'Wednesday: Open 24 hours', 'Thursday: Open 24 hours', 'Friday: Open 24 hours', 'Saturday: Open 24 hours', 'Sunday: Open 24 hours']","['park', 'point_of_interest', 'establishment']",5,3,,,
ChIJjfr8ZbQZQjERCkqkL3v9kek,Nhà thờ Tin Lành Trung Lập,"185 Phan Thanh, Thạc Gián, Thanh Khê, Đà Nẵng 550000, Vietnam",16.0613261,108.2093822,"['Monday: 5:00\u202fAM\u2009–\u20099:30\u202fPM', 'Tuesday: 5:00\u202fAM\u2009–\u20099:30\u202fPM', 'Wednesday: 5:00\u202fAM\u2009–\u20099:00\u202fPM', 'Thursday: 5:00\u202fAM\u2009–\u20099:00\u202fPM', 'Friday: 5:00\u202fAM\u2009–\u20099:00\u202fPM', 'Saturday: 5:00\u202fAM\u2009–\u20099:00\u202fPM', 'Sunday: 5:00\u202fAM\u2009–\u20099:30\u202fPM']","['church', 'place_of_worship', 'point_of_interest', 'establishment']",4.6,21,,,
ChIJjyObfjMYQjERPCR02HhMTMk,Cloudy Nitrogen Icecream & Drinks,"91 Phan Châu Trinh, Hải Châu 1, Hải Châu, Đà Nẵng 550000, Vietnam",16.0668104,108.2203741,"['Monday: 7:15\u202fAM\u2009–\u200910:30\u202fPM', 'Tuesday: 7:15\u202fAM\u2009–\u200910:30\u202fPM', 'Wednesday: 7:15\u202fAM\u2009–\u200910:30\u202fPM', 'Thursday: 7:15\u202fAM\u2009–\u200910:30\u202fPM', 'Friday: 7:15\u202fAM\u2009–\u200910:30\u202fPM', 'Saturday: 7:15\u202fAM\u2009–\u200910:30\u202fPM', 'Sunday: 7:15\u202fAM\u2009–\u200910:30\u202fPM']","['cafe', 'point_of_interest', 'food', 'establishment']",3.5,267,,,
ChIJjzeKSE0YQjERI8FF2cWF3NY,Quán Bánh Xèo Miền Trung Bà Tình,"280, Q, 14 Hoàng Diệu, Bình Hiên, Hải Châu, Đà Nẵng 550000, Vietnam",16.0588675,108.2162648,"['Monday: 9:00\u202fAM\u2009–\u200910:00\u202fPM', 'Tuesday: 9:00\u202fAM\u2009–\u200910:00\u202fPM', 'Wednesday: 8:00\u202fAM\u2009–\u20099:30\u202fPM', 'Thursday: 8:00\u202fAM\u2009–\u20099:30\u202fPM', 'Friday: 9:00\u202fAM\u2009–\u200910:00\u202fPM', 'Saturday: 8:00\u202fAM\u2009–\u20099:30\u202fPM', 'Sunday: 9:00\u202fAM\u2009–\u200910:00\u202fPM']","['restaurant', 'food', 'point_of_interest', 'establishment']",4.4,162,,,
ChIJk550n8kZQjERMiDQujZqpg8,Quán ăn vặt 2F,"320/6 Hoàng Diệu, Nam Dương, Hải Châu, Đà Nẵng 550000, Vietnam",16.0574489,108.2167858,"['Monday: 8:00\u202fAM\u2009–\u20099:00\u202fPM', 'Tuesday: 8:00\u202fAM\u2009–\u20099:00\u202fPM', 'Wednesday: 8:00\u202fAM\u2009–\u20099:00\u202fPM', 'Thursday: 8:00\u202fAM\u2009–\u20099:00\u202fPM', 'Friday: 8:00\u202fAM\u2009–\u20099:00\u202fPM', 'Saturday: 8:00\u202fAM\u2009–\u20099:00\u202fPM', 'Sunday: 8:00\u202fAM\u2009–\u20099:00\u202fPM']","['restaurant', 'food', 'point_of_interest', 'establishment']",3.9,12,,,
ChIJk9r3I7siQjER2w4atFuBYLw,Quán Ăn Chị Dự,"161 Yết Kiêu, Thọ Quang, Sơn Trà, Đà Nẵng, Vietnam",16.121562,108.2225741,,"['restaurant', 'food', 'point_of_interest', 'establishment']",5,1,,,
ChIJkatEeMwZQjERnAUKgmrbNgQ,Da Nang Fresco Village,"Kiệt 75 Nguyễn Văn Linh, Phước Ninh, Hải Châu, Đà Nẵng 550000, Vietnam",16.0607217,108.2200138,"['Monday: Open 24 hours', 'Tuesday: Open 24 hours', 'Wednesday: Open 24 hours', 'Thursday: Open 24 hours', 'Friday: Open 24 hours', 'Saturday: Open 24 hours', 'Sunday: Open 24 hours']","['tourist_attraction', 'point_of_interest', 'establishment']",4.1,585,,,
ChIJkbnpLh4ZQjERCd9Mn7Re6ao,HỒ TÌNH YÊU,"195 Hà Huy Tập, Hòa Khê, Thanh Khê, Đà Nẵng 550000, Vietnam",16.0606389,108.1912331,"['Monday: Open 24 hours', 'Tuesday: Open 24 hours', 'Wednesday: Open 24 hours', 'Thursday: Open 24 hours', 'Friday: Open 24 hours', 'Saturday: Open 24 hours', 'Sunday: Open 24 hours']","['tourist_attraction', 'point_of_interest', 'establishment']",,,,,
ChIJkevD71EYQjER4seVaZVHLk8,T&V - Teen and Vitality fresh milktea,"63 Tôn Thất Đạm, Xuân Hà, Thanh Khê, Đà Nẵng 550000, Vietnam",16.071512,108.2013278,,"['restaurant', 'food', 'point_of_interest', 'establishment']",,,,,
ChIJkzSVjMoZQjERwedbE3VmKt4,Chùa Pháp Lâm,"574 Ông Ích Khiêm, Nam Dương, Hải Châu, Đà Nẵng 550000, Vietnam",16.0622908,108.2155449,"['Monday: Open 24 hours', 'Tuesday: Open 24 hours', 'Wednesday: Open 24 hours', 'Thursday: Open 24 hours', 'Friday: Open 24 hours', 'Saturday: Open 24 hours', 'Sunday: Open 24 hours']","['tourist_attraction', 'place_of_worship', 'point_of_interest', 'establishment']",4.5,393,,,
ChIJl-_PmzMYQjERICCvYLcooxs,2S,"215 Nguyễn Chí Thanh, Hải Châu 1, Hải Châu, Đà Nẵng 550000, Vietnam",16.0673755,108.2210213,"['Monday: 6:20\u202fAM\u2009–\u20094:00\u202fPM', 'Tuesday: 6:20\u202fAM\u2009–\u20094:00\u202fPM', 'Wednesday: 6:20\u202fAM\u2009–\u20094:00\u202fPM', 'Thursday: 6:20\u202fAM\u2009–\u20094:00\u202fPM', 'Friday: 6:20\u202fAM\u2009–\u20094:00\u202fPM', 'Saturday: 6:20\u202fAM\u2009–\u20094:00\u202fPM', 'Sunday: 6:20\u202fAM\u2009–\u20094:00\u202fPM']","['cafe', 'food', 'point_of_interest', 'establishment']",4,3,,,
ChIJl93xhDQYQjERYcvdAbxfh4Q,Maru Food & Drinks,"18/10/06, Trần Bình Trọng, Hải Châu 1, Hải Châu, Đà Nẵng 550000, Vietnam",16.0666364,108.2194633,"['Monday: 11:00\u202fAM\u2009–\u200910:00\u202fPM', 'Tuesday: 11:00\u202fAM\u2009–\u200910:00\u202fPM', 'Wednesday: 11:00\u202fAM\u2009–\u200910:00\u202fPM', 'Thursday: 11:00\u202fAM\u2009–\u200910:00\u202fPM', 'Friday: 11:00\u202fAM\u2009–\u200910:00\u202fPM', 'Saturday: 11:00\u202fAM\u2009–\u200910:00\u202fPM', 'Sunday: 11:00\u202fAM\u2009–\u200910:00\u202fPM']","['restaurant', 'food', 'point_of_interest', 'establishment']",4,120,,,
ChIJlXPaMu0ZQjERgE8IBNyxomQ,Công Viên 29-3,"37A Điện Biên Phủ, Thạc Gián, Thanh Khê, Đà Nẵng 550000, Vietnam",16.065469,108.2044291,"['Monday: Open 24 hours', 'Tuesday: Open 24 hours', 'Wednesday: Open 24 hours', 'Thursday: Open 24 hours', 'Friday: Open 24 hours', 'Saturday: Open 24 hours', 'Sunday: Open 24 hours']","['park', 'point_of_interest', 'establishment']",4.4,546,,,
ChIJlYz29DkYQjERIB0lIG36QfY,Saigon Cafe Coffee Shop,"71 Lê Lợi, Thạch Thang, Hải Châu, Đà Nẵng 550000, Vietnam",16.0767565,108.2198171,"['Monday: 6:00\u202fAM\u2009–\u200910:00\u202fPM', 'Tuesday: 6:00\u202fAM\u2009–\u200910:00\u202fPM', 'Wednesday: 6:00\u202fAM\u2009–\u200910:00\u202fPM', 'Thursday: 6:00\u202fAM\u2009–\u200910:00\u202fPM', 'Friday: 6:00\u202fAM\u2009–\u200910:00\u202fPM', 'Saturday: 6:00\u202fAM\u2009–\u200910:00\u202fPM', 'Sunday: 6:00\u202fAM\u2009–\u200910:00\u202fPM']","['cafe', 'point_of_interest', 'food', 'establishment']",4.1,82,,,
ChIJl_BzBssZQjERj8iXb8-0sR0,Nhà thờ Tộc Huỳnh,"149 Hoàng Diệu, Nam Dương, Hải Châu, Đà Nẵng 550000, Vietnam",16.0618604,108.2176442,,"['church', 'place_of_worship', 'point_of_interest', 'establishment']",5,1,,,
ChIJl_QTyvIXQjERgkuxUjLEZag,Nhà hàng Trung Gia,"64 Võ Nguyên Giáp, Mân Thái, Sơn Trà, Đà Nẵng, Vietnam",16.0843398,108.2477849,"['Monday: 9:00\u202fAM\u2009–\u200911:00\u202fPM', 'Tuesday: 9:00\u202fAM\u2009–\u200911:00\u202fPM', 'Wednesday: 9:00\u202fAM\u2009–\u200911:00\u202fPM', 'Thursday: 9:00\u202fAM\u2009–\u200911:00\u202fPM', 'Friday: 9:00\u202fAM\u2009–\u200911:00\u202fPM', 'Saturday: 9:00\u202fAM\u2009–\u200911:00\u202fPM', 'Sunday: 9:00\u202fAM\u2009–\u200911:00\u202fPM']","['restaurant', 'food', 'point_of_interest', 'establishment']",4,508,,,
ChIJla9Qmm31QTEREtd_wbGZx5I,Khu Vườn Bí Mật,"thôn 1, Hòa Vang, Đà Nẵng 550000, Vietnam",16.05801,108.0383034,,"['point_of_interest', 'food', 'establishment']",5,5,,,
ChIJlxRKXssZQjEROxB3Oo9dNBQ,Nhà Hàng Ecstasy,"164, 166-168 Phan Châu Trinh, Phước Ninh, Hải Châu, Đà Nẵng 550000, Vietnam",16.0623347,108.2196561,"['Monday: Open 24 hours', 'Tuesday: Open 24 hours', 'Wednesday: Open 24 hours', 'Thursday: Open 24 hours', 'Friday: Open 24 hours', 'Saturday: Open 24 hours', 'Sunday: Open 24 hours']","['restaurant', 'point_of_interest', 'food', 'establishment']",4,283,,,
ChIJm5IjbjgYQjERmnHlK86M8Ck,Craft Coffee & Milk Tea,"144 Lý Tự Trọng, Thuận Phước, Hải Châu, Đà Nẵng 550000, Vietnam",16.0774965,108.2154529,"['Monday: 6:00\u202fAM\u2009–\u200910:00\u202fPM', 'Tuesday: 6:00\u202fAM\u2009–\u200910:00\u202fPM', 'Wednesday: 6:00\u202fAM\u2009–\u200910:00\u202fPM', 'Thursday: 6:00\u202fAM\u2009–\u200910:00\u202fPM', 'Friday: 6:00\u202fAM\u2009–\u200910:00\u202fPM', 'Saturday: 6:00\u202fAM\u2009–\u200910:00\u202fPM', 'Sunday: 6:00\u202fAM\u2009–\u200910:00\u202fPM']","['cafe', 'point_of_interest', 'food', 'establishment']",4,3,,,
ChIJmQIVarkZQjERCXhGCWqmTuA,Nhà Hàng Không Gian VIP,"34 Nguyễn Hữu Thọ, Hòa Thuận Nam, Hải Châu, Đà Nẵng 550000, Vietnam",16.0492669,108.207966,"['Monday: 6:30\u202fAM\u2009–\u200911:00\u202fPM', 'Tuesday: 6:30\u202fAM\u2009–\u200911:00\u202fPM', 'Wednesday: 6:30\u202fAM\u2009–\u200911:00\u202fPM', 'Thursday: 6:30\u202fAM\u2009–\u200911:00\u202fPM', 'Friday: 6:30\u202fAM\u2009–\u200911:00\u202fPM', 'Saturday: 6:30\u202fAM\u2009–\u200911:00\u202fPM', 'Sunday: 6:30\u202fAM\u2009–\u200911:00\u202fPM']","['restaurant', 'food', 'point_of_interest', 'establishment']",3.8,255,,,
ChIJmZHsE5U9QjERDa3a1CuK3lo,InterContinental Danang Sun Peninsula Resort,"Thọ Quang, Hải Châu District, Da Nang 550000, Vietnam",16.1224644,108.3053087,"['Monday: Open 24 hours', 'Tuesday: Open 24 hours', 'Wednesday: Open 24 hours', 'Thursday: Open 24 hours', 'Friday: Open 24 hours', 'Saturday: Open 24 hours', 'Sunday: Open 24 hours']","['lodging', 'spa', 'restaurant', 'point_of_interest', 'food', 'establishment']",4.8,2690,,,
ChIJm_FG-i4jQjERPKlZlox3Tl8,Bãi Yên Ngựa,"46XP+535, Thọ Quang, Sơn Trà, Da Nang, Vietnam",16.1478869,108.2352196,,"['tourist_attraction', 'point_of_interest', 'establishment']",4.4,10,,,
ChIJmyveeQUZQjER2rhwWU1I8KU,May Coffee,"414 Hà Huy Tập, Hòa Khê, Thanh Khê, Đà Nẵng 55000, Vietnam",16.0570748,108.1810488,"['Monday: 6:00\u202fAM\u2009–\u200910:00\u202fPM', 'Tuesday: 6:00\u202fAM\u2009–\u200910:00\u202fPM', 'Wednesday: 6:00\u202fAM\u2009–\u200910:00\u202fPM', 'Thursday: 6:00\u202fAM\u2009–\u200910:00\u202fPM', 'Friday: 6:00\u202fAM\u2009–\u200910:00\u202fPM', 'Saturday: 6:00\u202fAM\u2009–\u200910:00\u202fPM', 'Sunday: 6:00\u202fAM\u2009–\u200910:00\u202fPM']","['cafe', 'food', 'point_of_interest', 'establishment']",4.4,32,,,
ChIJn3ROG9sZQjERcKxpW0e8mZg,Đảo Cò (Heron Island),"26XH+H6C, Cầu Đảo Xanh, Hoà Cường Bắc, Hải Châu, Đà Nẵng 550000, Vietnam",16.0489399,108.2280219,"['Monday: Open 24 hours', 'Tuesday: Open 24 hours', 'Wednesday: Open 24 hours', 'Thursday: Open 24 hours', 'Friday: Open 24 hours', 'Saturday: Open 24 hours', 'Sunday: Open 24 hours']","['park', 'point_of_interest', 'establishment']",5,3,,,
ChIJn4eyFc_IahERHQ0fxga6zsI,Music tea room Le PARIS,"36 Đ. Trần Phú, Hải Châu 1, Hải Châu, Đà Nẵng 550000, Vietnam",16.0740771,108.2235061,"['Monday: 6:00\u2009–\u200911:30\u202fPM', 'Tuesday: 6:00\u2009–\u200911:30\u202fPM', 'Wednesday: 6:00\u2009–\u200911:30\u202fPM', 'Thursday: 6:00\u2009–\u200911:30\u202fPM', 'Friday: 6:00\u2009–\u200911:30\u202fPM', 'Saturday: 6:00\u2009–\u200911:30\u202fPM', 'Sunday: 6:00\u2009–\u200911:30\u202fPM']","['bar', 'cafe', 'point_of_interest', 'food', 'establishment']",4.1,107,,,
ChIJnwKLiE4YQjERMVI0qrqKg1c,Nhà Thờ Giáo Xứ Tam Tòa,"274 Trần Cao Vân, Tam Thuận, Thanh Khê, Đà Nẵng 550000, Vietnam",16.0717158,108.2037948,"['Monday: 5:30\u2009–\u20096:30\u202fPM', 'Tuesday: 5:30\u2009–\u20096:30\u202fPM', 'Wednesday: 5:30\u2009–\u20096:30\u202fPM', 'Thursday: 5:30\u2009–\u20096:30\u202fPM', 'Friday: 5:30\u2009–\u20096:30\u202fPM', 'Saturday: 5:30\u2009–\u20096:30\u202fPM', 'Sunday: 5:00\u2009–\u20096:00\u202fAM, 7:30\u2009–\u20098:30\u202fAM, 5:00\u2009–\u20096:00\u202fPM']","['tourist_attraction', 'church', 'place_of_worship', 'point_of_interest', 'establishment']",4.5,175,,,
ChIJnzfX91EYQjERpTGmniqxHlw,Cà phê phương nguyên,"67 Tôn Thất Đạm, Xuân Hà, Thanh Khê, Đà Nẵng 550000, Vietnam",16.0714504,108.2013397,"['Monday: 7:30\u202fAM\u2009–\u20095:30\u202fPM', 'Tuesday: 7:30\u202fAM\u2009–\u20095:30\u202fPM', 'Wednesday: 7:30\u202fAM\u2009–\u20095:30\u202fPM', 'Thursday: 7:30\u202fAM\u2009–\u20095:30\u202fPM', 'Friday: 7:30\u202fAM\u2009–\u20095:30\u202fPM', 'Saturday: 7:30\u202fAM\u2009–\u20095:30\u202fPM', 'Sunday: 7:30\u202fAM\u2009–\u20095:30\u202fPM']","['cafe', 'food', 'point_of_interest', 'establishment']",4.5,10,,,
ChIJo00V_qQbQjERtdgbZSvReKQ,làng Cẩm Nê,"làng Cẩm Nê, Hòa Tiến, Hòa Vang, Đà Nẵng, Vietnam",15.9867387,108.1762217,,"['neighborhood', 'political']",,,,,
ChIJo2kEY5EZQjERhn1a5nqISYg,Công viên Hòa Khê,"354Q+J4M, Phần Lăng 9, Thanh Khê, Đà Nẵng 550000, Vietnam",16.056597,108.1878106,,"['park', 'point_of_interest', 'establishment']",,,,,
ChIJo8fznMYZQjERNtNTUT-ZJyk,Ho Chi Minh Museum,"26X9+F2G, Duy Tân, Hoà Cường Bắc, Hải Châu, Đà Nẵng 550000, Vietnam",16.0486814,108.217581,"['Monday: 7:30\u202fAM\u2009–\u20094:30\u202fPM', 'Tuesday: 7:30\u202fAM\u2009–\u20094:30\u202fPM', 'Wednesday: 7:30\u202fAM\u2009–\u20094:30\u202fPM', 'Thursday: 7:30\u202fAM\u2009–\u20094:30\u202fPM', 'Friday: 7:30\u202fAM\u2009–\u20094:30\u202fPM', 'Saturday: 7:30\u202fAM\u2009–\u20094:30\u202fPM', 'Sunday: 7:30\u202fAM\u2009–\u20094:30\u202fPM']","['tourist_attraction', 'museum', 'point_of_interest', 'establishment']",4.2,926,,,
ChIJo9DC-8UZQjERPRgnb7gc2fI,Cơm gà Lan,"520 Trưng Nữ Vương, Hòa Thuận Đông, Hải Châu, Đà Nẵng 550000, Vietnam",16.0487675,108.2132138,"['Monday: Open 24 hours', 'Tuesday: Open 24 hours', 'Wednesday: Open 24 hours', 'Thursday: Open 24 hours', 'Friday: Open 24 hours', 'Saturday: Open 24 hours', 'Sunday: Open 24 hours']","['restaurant', 'food', 'point_of_interest', 'establishment']",4.3,198,,,
ChIJoS4yRwEZQjER2Lf93h1_hZE,Bờ Hồ Vĩnh Trung,"3676+3JX, Hồ Vĩnh Trung, Vĩnh Trung, Thanh Khê, Đà Nẵng 550000, Vietnam",16.0627351,108.2116168,,"['park', 'point_of_interest', 'establishment']",,,,,
ChIJoVIzOfgZQjERNAGxmvoeNBM,Công viên Đống Đa,"Hồ phun nước, Thạch Thang, Hải Châu, Đà Nẵng 550000, Vietnam",16.0730996,108.2132094,,"['park', 'point_of_interest', 'establishment']",3,4,,,
ChIJoaQC8bAZQjERtff9xIGh-wg,CaravanCafe,"7 Nguyễn Phi Khanh, Hòa Thuận Nam, Hải Châu, Đà Nẵng 550000, Vietnam",16.0559172,108.2058502,"['Monday: 6:30\u202fAM\u2009–\u20096:00\u202fPM', 'Tuesday: 6:30\u202fAM\u2009–\u20096:00\u202fPM', 'Wednesday: 6:30\u202fAM\u2009–\u20096:00\u202fPM', 'Thursday: 6:30\u202fAM\u2009–\u20096:00\u202fPM', 'Friday: 6:30\u202fAM\u2009–\u20096:00\u202fPM', 'Saturday: 6:30\u202fAM\u2009–\u20096:00\u202fPM', 'Sunday: 6:30\u202fAM\u2009–\u20096:00\u202fPM']","['cafe', 'car_wash', 'point_of_interest', 'food', 'establishment']",4.1,47,,,
ChIJofEZYpIZQjERWta9_1Fz8aU,Nhà Thờ Tộc Trần Văn,"226 Lương Nhữ Hộc, Khuê Trung, Cẩm Lệ, Đà Nẵng 550000, Vietnam",16.0320446,108.2109423,,"['church', 'place_of_worship', 'point_of_interest', 'establishment']",5,1,,,
ChIJofjhbej3QTER0WsAIq8bSK8,Ngam Doi Ecotourism Area,"X28G+G5C, QL14G, Hoà Phú, Hòa Vang, Đà Nẵng, Vietnam",15.9663077,108.0253803,,"['tourist_attraction', 'point_of_interest', 'establishment']",3.6,69,,,
ChIJp5MC_MQZQjEROAwJ8juWleA,Chân Cầu Trần Thị Lý 1,"Hòa Cường, Hải Châu District, Da Nang 550000, Vietnam",16.049417,108.2233,,"['bus_station', 'transit_station', 'point_of_interest', 'establishment']",3.4,5,,,
ChIJpZ5lH2IZQjERjlOHzB8fzjc,Công viên Bàu Tràm,"26M6+564, Khuê Trung, Cẩm Lệ District, Da Nang 550000, Vietnam",16.0328935,108.2105802,,"['park', 'point_of_interest', 'establishment']",,,,,
ChIJpb6jDYUZQjERKU-DXSekLIE,Grass Square,"26RF+45R, 30 Tháng 4, Hoà Cường Bắc, Hải Châu, Đà Nẵng, Vietnam",16.0403618,108.2228858,"['Monday: Open 24 hours', 'Tuesday: Open 24 hours', 'Wednesday: Open 24 hours', 'Thursday: Open 24 hours', 'Friday: Open 24 hours', 'Saturday: Open 24 hours', 'Sunday: Open 24 hours']","['tourist_attraction', 'point_of_interest', 'establishment']",4.4,5,,,
ChIJpe-amLwiQjERHHomp0oH1hQ,Quán Ăn Bưu Điện,"1 Yết Kiêu, Thọ Quang, Sơn Trà, Đà Nẵng, Vietnam",16.1217221,108.2193932,,"['restaurant', 'food', 'point_of_interest', 'establishment']",4,1,,,
ChIJq6rqi9MZQjERgdO3B43nQnc,Đền Thờ Thoại Ngọc Hầu,"365J+MJ7, Hà Thị Thân, An Hải Trung, Sơn Trà, Đà Nẵng 550000, Vietnam",16.0591662,108.2315427,,"['church', 'place_of_worship', 'point_of_interest', 'establishment']",,,,,
