ID,Name,Address,Latitude,Longitude,Opening Hours,Types,Rating,User Ratings Total
ChIJBUGlQb4ZQjERT8HjiqufUcc,Hòa Cường catholic church,"150 Nguyễn Hữu Thọ, Hòa Thuận Nam, Hải Châu, Đà Nẵng 550000, Vietnam",16.0440841,108.2097487,"['Monday: 5:00\u202fAM\u2009–\u20099:30\u202fPM', 'Tuesday: 5:00\u202fAM\u2009–\u200910:00\u202fPM', 'Wednesday: 5:00\u202fAM\u2009–\u20099:30\u202fPM', 'Thursday: 5:00\u202fAM\u2009–\u200910:00\u202fPM', 'Friday: 5:00\u202fAM\u2009–\u20099:30\u202fPM', 'Saturday: 5:00\u202fAM\u2009–\u200910:00\u202fPM', 'Sunday: 5:00\u202fAM\u2009–\u20099:30\u202fPM']","['tourist_attraction', 'church', 'place_of_worship', 'point_of_interest', 'establishment']",4.7,206
ChIJH5FAHiEYQjERi-kdX4gd-eE,Da Nang Food Tour,"4 Trần Quốc Toản, Hải Châu 1, Hải Châu, Đà Nẵng 550000, Vietnam",16.0661013,108.2243619,"['Monday: 8:00\u202fAM\u2009–\u20099:00\u202fPM', 'Tuesday: 8:00\u202fAM\u2009–\u20099:00\u202fPM', 'Wednesday: 8:00\u202fAM\u2009–\u20099:00\u202fPM', 'Thursday: 8:00\u202fAM\u2009–\u20099:00\u202fPM', 'Friday: 8:00\u202fAM\u2009–\u20099:00\u202fPM', 'Saturday: 8:00\u202fAM\u2009–\u20099:00\u202fPM', 'Sunday: 8:00\u202fAM\u2009–\u20099:00\u202fPM']","['tourist_attraction', 'point_of_interest', 'establishment']",4.3,55
ChIJmySGLj4YQjERP-VGWyH42ks,Zone Media,"Tầng 3 tòa nhà Indochina Riverside, 74 Bạch Đằng, Hải Châu, Hải Châu 1, Đà Nẵng, 550000, Vietnam",16.0696342,108.2249089,"['Monday: 7:00\u202fAM\u2009–\u20096:00\u202fPM', 'Tuesday: 7:00\u202fAM\u2009–\u20096:00\u202fPM', 'Wednesday: 7:00\u202fAM\u2009–\u20096:00\u202fPM', 'Thursday: 7:00\u202fAM\u2009–\u20096:00\u202fPM', 'Friday: 7:00\u202fAM\u2009–\u20096:00\u202fPM', 'Saturday: 7:00\u202fAM\u2009–\u20096:00\u202fPM', 'Sunday: Closed']","['tourist_attraction', 'lodging', 'point_of_interest', 'establishment']",4,4
ChIJ4TzoziwYQjER8Wp_tOG1pYA,DHC Marina,"367H+PW4, Đ. Trần Hưng Đạo, An Hải Trung, Sơn Trà, Đà Nẵng 550000, Vietnam",16.0642548,108.2298186,"['Monday: Open 24 hours', 'Tuesday: Open 24 hours', 'Wednesday: Open 24 hours', 'Thursday: Open 24 hours', 'Friday: Open 24 hours', 'Saturday: Open 24 hours', 'Sunday: Open 24 hours']","['tourist_attraction', 'point_of_interest', 'establishment']",4.1,172
ChIJLWoAs80ZQjERLKHDYD-ZymI,Da Nang Museum of Cham Sculpture,"Số 02 Đ. 2 Tháng 9, Bình Hiên, Hải Châu, Đà Nẵng 550000, Vietnam",16.0603007,108.2232677,"['Monday: 7:30\u202fAM\u2009–\u20095:00\u202fPM', 'Tuesday: 7:30\u202fAM\u2009–\u20095:00\u202fPM', 'Wednesday: 7:30\u202fAM\u2009–\u20095:00\u202fPM', 'Thursday: 7:30\u202fAM\u2009–\u20095:00\u202fPM', 'Friday: 7:30\u202fAM\u2009–\u20095:00\u202fPM', 'Saturday: 7:30\u202fAM\u2009–\u20095:00\u202fPM', 'Sunday: 7:30\u202fAM\u2009–\u20095:00\u202fPM']","['tourist_attraction', 'museum', 'general_contractor', 'point_of_interest', 'establishment']",4.1,5260
ChIJF8yRoecZQjERdDBeBdSRD-Y,Asia Park - Sun World Da Nang Wonders,"1 Phan Đăng Lưu, Hoà Cường Bắc, Hải Châu, Đà Nẵng, Vietnam",16.0383924,108.2266751,"['Monday: 3:00\u2009–\u200910:00\u202fPM', 'Tuesday: 3:00\u2009–\u200910:00\u202fPM', 'Wednesday: 3:00\u2009–\u200910:00\u202fPM', 'Thursday: 3:00\u2009–\u200910:00\u202fPM', 'Friday: 3:00\u2009–\u200910:00\u202fPM', 'Saturday: 3:00\u2009–\u200910:00\u202fPM', 'Sunday: 3:00\u2009–\u200910:00\u202fPM']","['tourist_attraction', 'amusement_park', 'park', 'point_of_interest', 'establishment']",4.4,8517
ChIJ9fqsdOcZQjERZcIMEHw3HtY,Sun Wheel,"1 Phan Đăng Lưu, Hoà Cường Bắc, Hải Châu, Đà Nẵng, Vietnam",16.0404534,108.2283843,"['Monday: 3:00\u2009–\u20099:00\u202fPM', 'Tuesday: 3:00\u2009–\u20099:00\u202fPM', 'Wednesday: 3:00\u2009–\u20099:00\u202fPM', 'Thursday: 3:00\u2009–\u20099:00\u202fPM', 'Friday: 3:00\u2009–\u200910:00\u202fPM', 'Saturday: 3:00\u2009–\u200910:00\u202fPM', 'Sunday: 3:00\u2009–\u200910:00\u202fPM']","['tourist_attraction', 'point_of_interest', 'establishment']",4.5,4135
ChIJgyd5qSwYQjERWjrZwzhyXKc,Chùa An Phước,"Mai Hắc Đế, An Hải Trung, Sơn Trà, Đà Nẵng 550000, Vietnam",16.0634876,108.231513,,"['tourist_attraction', 'place_of_worship', 'point_of_interest', 'establishment']",4.6,27
ChIJo8fznMYZQjERNtNTUT-ZJyk,Ho Chi Minh Museum,"26X9+F2G, Duy Tân, Hoà Cường Bắc, Hải Châu, Đà Nẵng 550000, Vietnam",16.0486814,108.217581,"['Monday: 7:30\u202fAM\u2009–\u20094:30\u202fPM', 'Tuesday: 7:30\u202fAM\u2009–\u20094:30\u202fPM', 'Wednesday: 7:30\u202fAM\u2009–\u20094:30\u202fPM', 'Thursday: 7:30\u202fAM\u2009–\u20094:30\u202fPM', 'Friday: 7:30\u202fAM\u2009–\u20094:30\u202fPM', 'Saturday: 7:30\u202fAM\u2009–\u20094:30\u202fPM', 'Sunday: 7:30\u202fAM\u2009–\u20094:30\u202fPM']","['tourist_attraction', 'museum', 'point_of_interest', 'establishment']",4.2,927
ChIJkzSVjMoZQjERwedbE3VmKt4,Chùa Pháp Lâm,"574 Ông Ích Khiêm, Nam Dương, Hải Châu, Đà Nẵng 550000, Vietnam",16.0622908,108.2155449,"['Monday: Open 24 hours', 'Tuesday: Open 24 hours', 'Wednesday: Open 24 hours', 'Thursday: Open 24 hours', 'Friday: Open 24 hours', 'Saturday: Open 24 hours', 'Sunday: Open 24 hours']","['tourist_attraction', 'place_of_worship', 'point_of_interest', 'establishment']",4.5,389
ChIJS0W_PlEZQjERNocT1rjxDB4,Bạch đằng,"64 Thi Sách, Hòa Thuận Nam, Hải Châu, Đà Nẵng 550000, Vietnam",16.0540721,108.2054827,,"['tourist_attraction', 'point_of_interest', 'establishment']",,
ChIJR0Q0teUZQjERKEBd7ptNNZM,Grab Car,"3643+H97, Nguyễn Văn Linh, Hòa Thuận Tây, Hải Châu, Đà Nẵng 550000, Vietnam",16.0562399,108.2031234,,"['tourist_attraction', 'point_of_interest', 'establishment']",2.5,2
ChIJD29VgVEZQjERw7uqpISQl7w,Vintage Window,"K280 Hoàng Diệu, Bình Hiên, Hải Châu, Đà Nẵng 550000, Vietnam",16.0588292,108.216885,,"['tourist_attraction', 'point_of_interest', 'establishment']",,
ChIJRZhHIMkZQjERYBH-5S1xKNg,Pho Da Temple,"340 Phan Châu Trinh, Bình Thuận, Hải Châu, Đà Nẵng 550000, Vietnam",16.0559509,108.2186556,,"['tourist_attraction', 'place_of_worship', 'point_of_interest', 'establishment']",4.5,122
ChIJxR2USegZQjERSUEqi77jEB8,Công Ty TNHH Tư Vấn Và Dịch Thuật Miền Trung 247,"K130A/18 Điện Biên Phủ, Chính Gián, Thanh Khê, Đà Nẵng 550000, Vietnam",16.0658429,108.1986696,"['Monday: 5:00\u202fAM\u2009–\u200910:00\u202fPM', 'Tuesday: 5:00\u202fAM\u2009–\u200910:00\u202fPM', 'Wednesday: 5:00\u202fAM\u2009–\u200910:00\u202fPM', 'Thursday: 5:00\u202fAM\u2009–\u200910:00\u202fPM', 'Friday: 5:00\u202fAM\u2009–\u200910:00\u202fPM', 'Saturday: 5:00\u202fAM\u2009–\u200910:00\u202fPM', 'Sunday: 5:00\u202fAM\u2009–\u200910:00\u202fPM']","['tourist_attraction', 'travel_agency', 'point_of_interest', 'health', 'establishment']",5,62
ChIJkatEeMwZQjERnAUKgmrbNgQ,Da Nang Fresco Village,"Kiệt 75 Nguyễn Văn Linh, Phước Ninh, Hải Châu, Đà Nẵng 550000, Vietnam",16.0607217,108.2200138,"['Monday: Open 24 hours', 'Tuesday: Open 24 hours', 'Wednesday: Open 24 hours', 'Thursday: Open 24 hours', 'Friday: Open 24 hours', 'Saturday: Open 24 hours', 'Sunday: Open 24 hours']","['tourist_attraction', 'point_of_interest', 'establishment']",4.1,580
ChIJs4CsYc0ZQjERfosaA8zDOEE,danang,"26W9+VXP, Hòa Cường, Hải Châu District, Da Nang 550000, Vietnam",16.0472002,108.2199588,,"['tourist_attraction', 'point_of_interest', 'establishment']",,
ChIJu6FQjzUYQjER39TMpgQVRUs,Con Market,"290 Hùng Vương, Vĩnh Trung, Hải Châu, Đà Nẵng 550000, Vietnam",16.0680564,108.2143082,"['Monday: 7:00\u202fAM\u2009–\u20097:00\u202fPM', 'Tuesday: 7:00\u202fAM\u2009–\u20097:00\u202fPM', 'Wednesday: 7:00\u202fAM\u2009–\u20097:00\u202fPM', 'Thursday: 7:00\u202fAM\u2009–\u20097:00\u202fPM', 'Friday: 7:00\u202fAM\u2009–\u20097:00\u202fPM', 'Saturday: 7:00\u202fAM\u2009–\u20097:00\u202fPM', 'Sunday: 7:00\u202fAM\u2009–\u20097:00\u202fPM']","['tourist_attraction', 'point_of_interest', 'establishment']",4.2,13289
ChIJyd6isx8ZQjERFA4utV9C37c,Shop pet,"Tân Chính, Thanh Khê, Đà Nẵng 550000, Vietnam",16.069943,108.210321,"['Monday: 8:30\u202fAM\u2009–\u200910:00\u202fPM', 'Tuesday: 8:30\u202fAM\u2009–\u200910:00\u202fPM', 'Wednesday: 8:30\u202fAM\u2009–\u200910:00\u202fPM', 'Thursday: 8:30\u202fAM\u2009–\u200910:00\u202fPM', 'Friday: 8:30\u202fAM\u2009–\u200910:00\u202fPM', 'Saturday: 8:30\u202fAM\u2009–\u200910:00\u202fPM', 'Sunday: 8:30\u202fAM\u2009–\u200910:00\u202fPM']","['tourist_attraction', 'point_of_interest', 'establishment']",5,5
ChIJqSrP1AQZQjERe15rgXw9vz0,Đặc Sản Bò Lụi Bé Na - Nem Lụi Bé Na,"267 Ông Ích Khiêm, Hải Châu 2, Hải Châu, Đà Nẵng 550000, Vietnam",16.0688806,108.2139012,"['Monday: Open 24 hours', 'Tuesday: Open 24 hours', 'Wednesday: Open 24 hours', 'Thursday: Open 24 hours', 'Friday: Open 24 hours', 'Saturday: Open 24 hours', 'Sunday: Open 24 hours']","['tourist_attraction', 'grocery_or_supermarket', 'store', 'restaurant', 'food', 'point_of_interest', 'establishment']",5,19
ChIJC-CJfRYZQjER_B1JJTtnK7Y,Bánh Canh Bà Bé Chợ Cồn Đà Nẵng,"QUÁN DUY NHẤT Ở ĐÀ NẴNG - Cổng chợ cồn, 269 Ông Ích Khiêm, Hải Châu 2, Hải Châu, Đà Nẵng 550000, Vietnam",16.0689316,108.2138951,"['Monday: 6:45\u202fPM\u2009–\u200912:00\u202fAM', 'Tuesday: 6:45\u202fPM\u2009–\u200912:00\u202fAM', 'Wednesday: 6:45\u202fPM\u2009–\u200912:00\u202fAM', 'Thursday: 6:45\u202fPM\u2009–\u200912:00\u202fAM', 'Friday: 6:45\u202fPM\u2009–\u200912:00\u202fAM', 'Saturday: 6:45\u202fPM\u2009–\u200912:00\u202fAM', 'Sunday: 6:45\u202fPM\u2009–\u200912:00\u202fAM']","['tourist_attraction', 'point_of_interest', 'establishment']",3.6,18
ChIJASjStc0ZQjERf8hQfCEJ8JA,An Long Temple,"4 Đ. 2 Tháng 9, Bình Hiên, Hải Châu, Đà Nẵng 550000, Vietnam",16.0597945,108.223266,,"['tourist_attraction', 'place_of_worship', 'point_of_interest', 'establishment']",4.5,67
ChIJ0atM70kYQjERt8DDC2MBtX4,다낭현지교회,"190 Ông Ích Khiêm, Tân Chính, Thanh Khê, Đà Nẵng 550000, Vietnam",16.0710393,108.2129536,,"['church', 'tourist_attraction', 'place_of_worship', 'point_of_interest', 'establishment']",4.9,57
ChIJnwKLiE4YQjERMVI0qrqKg1c,Nhà Thờ Giáo Xứ Tam Tòa,"274 Trần Cao Vân, Tam Thuận, Thanh Khê, Đà Nẵng 550000, Vietnam",16.0717158,108.2037948,"['Monday: 5:30\u2009–\u20096:30\u202fPM', 'Tuesday: 5:30\u2009–\u20096:30\u202fPM', 'Wednesday: 5:30\u2009–\u20096:30\u202fPM', 'Thursday: 5:30\u2009–\u20096:30\u202fPM', 'Friday: 5:30\u2009–\u20096:30\u202fPM', 'Saturday: 5:30\u2009–\u20096:30\u202fPM', 'Sunday: 5:00\u2009–\u20096:00\u202fAM, 7:30\u2009–\u20098:30\u202fAM, 5:00\u2009–\u20096:00\u202fPM']","['tourist_attraction', 'church', 'place_of_worship', 'point_of_interest', 'establishment']",4.5,175
ChIJtRKHI78ZQjERoPBC7lu9HEQ,GIÒ BẮP BÊ NGHỆ AN - CN ĐÀ NẴNG,"156 Hùng Vương, Hải Châu 1, Hải Châu, Đà Nẵng 550000, Vietnam",16.0682813,108.2184452,,"['tourist_attraction', 'point_of_interest', 'establishment']",,
ChIJbbs1ZTQYQjERi3OdfmnRk2g,Hai Chau Village Hall,"3699+3MQ, K48 Phan Châu Trinh, Hải Châu 1, Hải Châu, Đà Nẵng 550000, Vietnam",16.0677019,108.2192454,,"['tourist_attraction', 'point_of_interest', 'establishment']",4.4,34
ChIJHTR8VDIYQjERdfEDU-POofU,Đà Nẵng Cathedral,"156 Đ. Trần Phú, Hải Châu 1, Hải Châu, Đà Nẵng 550000, Vietnam",16.0666718,108.2229706,"['Monday: 6:00\u202fAM\u2009–\u20094:30\u202fPM', 'Tuesday: 6:00\u202fAM\u2009–\u20094:30\u202fPM', 'Wednesday: 6:00\u202fAM\u2009–\u20094:30\u202fPM', 'Thursday: 6:00\u202fAM\u2009–\u20094:30\u202fPM', 'Friday: 6:00\u202fAM\u2009–\u20094:30\u202fPM', 'Saturday: 6:00\u202fAM\u2009–\u20094:30\u202fPM', 'Sunday: 11:30\u202fAM\u2009–\u20091:30\u202fPM']","['tourist_attraction', 'church', 'place_of_worship', 'point_of_interest', 'establishment']",3.9,9417
ChIJ6fTZzi4ZQjERB7zNaGQLETs,Mi đi mô,"30, 16/3 Đ. Trần Phú, Hải Châu 1, Hải Châu, Đà Nẵng 55000, Vietnam",16.0662321,108.2232725,,"['tourist_attraction', 'point_of_interest', 'establishment']",,
ChIJ78thjjYYQjERkiy-c9ebVPE,Danang Fine Arts Museum,"78 Đ. Lê Duẩn, Thạch Thang, Hải Châu, Đà Nẵng 550000, Vietnam",16.0712986,108.2177249,"['Monday: 8:00\u202fAM\u2009–\u20095:00\u202fPM', 'Tuesday: 8:00\u202fAM\u2009–\u20095:00\u202fPM', 'Wednesday: 8:00\u202fAM\u2009–\u20095:00\u202fPM', 'Thursday: 8:00\u202fAM\u2009–\u20095:00\u202fPM', 'Friday: 8:00\u202fAM\u2009–\u20095:00\u202fPM', 'Saturday: 8:00\u202fAM\u2009–\u20095:00\u202fPM', 'Sunday: 8:00\u202fAM\u2009–\u20095:00\u202fPM']","['tourist_attraction', 'museum', 'point_of_interest', 'establishment']",4.4,623
ChIJ75pYOI8ZQjEReb8Mw6ThCZQ,Nhà Thờ Con Gà,"156 Đ. Trần Phú, Hải Châu 1, Hải Châu, Đà Nẵng 550000, Vietnam",16.0666864,108.2232191,"['Monday: 7:00\u202fAM\u2009–\u20096:00\u202fPM', 'Tuesday: 7:00\u202fAM\u2009–\u20096:00\u202fPM', 'Wednesday: 7:00\u202fAM\u2009–\u20096:00\u202fPM', 'Thursday: 7:00\u202fAM\u2009–\u20096:00\u202fPM', 'Friday: 7:00\u202fAM\u2009–\u20096:00\u202fPM', 'Saturday: 7:00\u202fAM\u2009–\u20096:00\u202fPM', 'Sunday: 7:00\u202fAM\u2009–\u20096:00\u202fPM']","['tourist_attraction', 'point_of_interest', 'establishment']",4.6,348
ChIJO-CAdzAYQjERcuYVXdwMfkE,Ruralstay Vietnam,"206 Huỳnh Ngọc Huệ, Hòa Khê, Thanh Khê, Đà Nẵng 590000, Vietnam",16.0570672,108.18675,"['Monday: 10:00\u202fAM\u2009–\u20095:00\u202fPM', 'Tuesday: 10:00\u202fAM\u2009–\u20095:00\u202fPM', 'Wednesday: 10:00\u202fAM\u2009–\u20095:00\u202fPM', 'Thursday: 10:00\u202fAM\u2009–\u20095:00\u202fPM', 'Friday: 10:00\u202fAM\u2009–\u20095:00\u202fPM', 'Saturday: Closed', 'Sunday: Closed']","['tourist_attraction', 'travel_agency', 'point_of_interest', 'establishment']",5,2
ChIJq9RJ9jYYQjERv3TZJNtSuHM,Hội Thánh Truyền Giáo Cao Đài-Trung Hưng Bửu Toà,"63 Hải Phòng, Thạch Thang, Hải Châu, Đà Nẵng 550000, Vietnam",16.0719117,108.2170862,,"['tourist_attraction', 'place_of_worship', 'point_of_interest', 'establishment']",3.3,74
ChIJD8ivG7YZQjERxe5fgwGSVao,Karaoke camel,"7 Xuân Hòa 1, Hòa Khê, Thanh Khê, Đà Nẵng 550000, Vietnam",16.067675,108.1915169,"['Monday: 9:00\u202fAM\u2009–\u200912:00\u202fAM', 'Tuesday: 9:00\u202fAM\u2009–\u200912:00\u202fAM', 'Wednesday: 9:00\u202fAM\u2009–\u200912:00\u202fAM', 'Thursday: 9:00\u202fAM\u2009–\u200912:00\u202fAM', 'Friday: 9:00\u202fAM\u2009–\u200912:00\u202fAM', 'Saturday: 9:00\u202fAM\u2009–\u200912:00\u202fAM', 'Sunday: 9:00\u202fAM\u2009–\u200912:00\u202fAM']","['tourist_attraction', 'point_of_interest', 'establishment']",4.8,10
ChIJq-8RcEkZQjER6Y97EGQg4g4,Massage,"177 Đ. Trần Phú, Hải Châu 1, Q. Hải Châu, Đà Nẵng 550000, Vietnam",16.066422,108.2238567,"['Monday: 10:00\u202fAM\u2009–\u200912:00\u202fAM', 'Tuesday: 10:00\u202fAM\u2009–\u200912:00\u202fAM', 'Wednesday: 10:00\u202fAM\u2009–\u200912:00\u202fAM', 'Thursday: 10:00\u202fAM\u2009–\u200912:00\u202fAM', 'Friday: 10:00\u202fAM\u2009–\u200912:00\u202fAM', 'Saturday: Open 24 hours', 'Sunday: Open 24 hours']","['tourist_attraction', 'point_of_interest', 'establishment']",,
ChIJ6XD02FMZQjERzT9uC9hB_oY,Quảng trường 2/9,"26RF+F35, Hòa Cường, Hải Châu District, Da Nang, Vietnam",16.0411297,108.2227389,,"['tourist_attraction', 'point_of_interest', 'establishment']",4.5,26
ChIJL1GKWJYZQjERLrEGqlK2kwQ,Drachenbrücke (Cầu Rồng),"29 Cầu Rồng, An Hải Trung, Sơn Trà, Đà Nẵng 550000, Vietnam",16.0612993,108.2271986,"['Monday: Open 24 hours', 'Tuesday: Open 24 hours', 'Wednesday: Open 24 hours', 'Thursday: Open 24 hours', 'Friday: Open 24 hours', 'Saturday: Open 24 hours', 'Sunday: Open 24 hours']","['tourist_attraction', 'point_of_interest', 'establishment']",5,2
ChIJ22t6tSYZQjER2vqQjMqhnsI,Heo Quay Ông Tỵ,"538 Trần Cao Vân, Xuân Hà, Thanh Khê, Đà Nẵng 550000, Vietnam",16.0713129,108.1943244,,"['tourist_attraction', 'point_of_interest', 'establishment']",5,2
ChIJiVEp-zsZQjERKKgVAGERFrE,Dragon Bridge,"27 Cầu Rồng, An Hải Trung, Sơn Trà, Đà Nẵng 550000, Vietnam",16.0611087,108.2274955,,"['tourist_attraction', 'point_of_interest', 'establishment']",4.6,58
ChIJpb6jDYUZQjERKU-DXSekLIE,Grass Square,"26RF+45R, 30 Tháng 4, Hoà Cường Bắc, Hải Châu, Đà Nẵng, Vietnam",16.0403618,108.2228858,"['Monday: Open 24 hours', 'Tuesday: Open 24 hours', 'Wednesday: Open 24 hours', 'Thursday: Open 24 hours', 'Friday: Open 24 hours', 'Saturday: Open 24 hours', 'Sunday: Open 24 hours']","['tourist_attraction', 'point_of_interest', 'establishment']",4.4,5
ChIJI4dziJEZQjERgstBZnZ5cSk,Chả Bò Đà Nẵng - Đặc Sản Đà Nẵng Hà Hoa,"72 Nguyễn Dữ, Khuê Trung, Cẩm Lệ, Đà Nẵng 50000, Vietnam",16.0334222,108.207884,,"['tourist_attraction', 'grocery_or_supermarket', 'food', 'store', 'point_of_interest', 'health', 'establishment']",4.8,24
ChIJDcx-OTIYQjERP4eyjItPspA,Han Market,"119 Đ. Trần Phú, Hải Châu 1, Hải Châu, Đà Nẵng 550000, Vietnam",16.0682581,108.224269,"['Monday: 6:00\u202fAM\u2009–\u20097:00\u202fPM', 'Tuesday: 6:00\u202fAM\u2009–\u20097:00\u202fPM', 'Wednesday: 6:00\u202fAM\u2009–\u20097:00\u202fPM', 'Thursday: 6:00\u202fAM\u2009–\u20097:00\u202fPM', 'Friday: 6:00\u202fAM\u2009–\u20097:00\u202fPM', 'Saturday: 6:00\u202fAM\u2009–\u20097:00\u202fPM', 'Sunday: 6:00\u202fAM\u2009–\u20097:00\u202fPM']","['tourist_attraction', 'point_of_interest', 'establishment']",3.8,20276
ChIJz4Y1XCcZQjERzg9AZYfOGH8,Bãi Biển Thiên Đường,"35FV+2R9, Xuan Ha, Thanh Khê District, Da Nang 550000, Vietnam",16.0725445,108.1946026,"['Monday: Open 24 hours', 'Tuesday: Open 24 hours', 'Wednesday: Open 24 hours', 'Thursday: Open 24 hours', 'Friday: Open 24 hours', 'Saturday: Open 24 hours', 'Sunday: Open 24 hours']","['tourist_attraction', 'point_of_interest', 'establishment']",4.4,7
ChIJTdEIjH4ZQjERMQ5qnTUbHFU,Nguyen Van Troi Walking Bridge,"Nguyễn Văn Trỗi Bridge, Bắc Mỹ Phú, Sơn Trà, Đà Nẵng 550000, Vietnam",16.0510826,108.2290629,"['Monday: Open 24 hours', 'Tuesday: Open 24 hours', 'Wednesday: Open 24 hours', 'Thursday: Open 24 hours', 'Friday: Open 24 hours', 'Saturday: Open 24 hours', 'Sunday: Open 24 hours']","['tourist_attraction', 'point_of_interest', 'establishment']",4.8,67
ChIJVwCYLlMYQjER5C5nOpHcglg,Đà Nẵng Travel Mart,"515 Trần Cao Vân, Xuân Hà, Thanh Khê, Đà Nẵng 550000, Vietnam",16.0711506,108.1904043,"['Monday: Open 24 hours', 'Tuesday: Open 24 hours', 'Wednesday: Open 24 hours', 'Thursday: Open 24 hours', 'Friday: Open 24 hours', 'Saturday: Open 24 hours', 'Sunday: Open 24 hours']","['tourist_attraction', 'point_of_interest', 'establishment']",4.5,20
ChIJ4e98LzAZQjERfbT5tjHCmNI,Yêu hơn mỗi ngày,"367H+8RV, An Hải, Sơn Trà, Da Nang 550000, Vietnam",16.0633543,108.2295605,,"['tourist_attraction', 'point_of_interest', 'establishment']",,
ChIJ3cVClWEZQjER_gdKDyG2Q30,Cầu Tình Yêu Đà Nẵng,"367H+8R9, Đ. Trần Hưng Đạo, An Hải, Sơn Trà, Đà Nẵng 550000, Vietnam",16.0632799,108.2296041,"['Monday: Open 24 hours', 'Tuesday: Open 24 hours', 'Wednesday: Open 24 hours', 'Thursday: Open 24 hours', 'Friday: Open 24 hours', 'Saturday: Open 24 hours', 'Sunday: Open 24 hours']","['tourist_attraction', 'point_of_interest', 'establishment']",4.5,1735
ChIJ4QBQgowZQjERs200POAfAZs,Tượng Cá Chép Hóa Rồng,"Đ. Trần Hưng Đạo, An Hải, Sơn Trà, Đà Nẵng 550000, Vietnam",16.06291,108.229815,"['Monday: Open 24 hours', 'Tuesday: Open 24 hours', 'Wednesday: Open 24 hours', 'Thursday: Open 24 hours', 'Friday: Open 24 hours', 'Saturday: Open 24 hours', 'Sunday: Open 24 hours']","['tourist_attraction', 'point_of_interest', 'establishment']",4.6,141
ChIJL710Z-gZQjERTwK6WEaLM1c,Children's cultural houses,"2a Phan Đăng Lưu, Hoà Cường Bắc, Hải Châu, Đà Nẵng, Vietnam",16.0387805,108.2254072,"['Monday: 8:00\u202fAM\u2009–\u20096:00\u202fPM', 'Tuesday: 8:00\u202fAM\u2009–\u20096:00\u202fPM', 'Wednesday: 8:00\u202fAM\u2009–\u20096:00\u202fPM', 'Thursday: 8:00\u202fAM\u2009–\u20096:00\u202fPM', 'Friday: 8:00\u202fAM\u2009–\u20096:00\u202fPM', 'Saturday: 8:00\u202fAM\u2009–\u20096:00\u202fPM', 'Sunday: 8:00\u202fAM\u2009–\u20096:00\u202fPM']","['tourist_attraction', 'point_of_interest', 'establishment']",4.4,1273
ChIJ3yiA7dMZQjERY4jp0EEjB3I,Sena homestay Cầu Rồng Đà Nẵng,"K3/12 Hà Thị Thân, An Hải Tây, Sơn Trà, Đà Nẵng 550000, Vietnam",16.0602902,108.2314969,"['Monday: 6:30\u202fAM\u2009–\u200911:00\u202fPM', 'Tuesday: 6:30\u202fAM\u2009–\u200911:00\u202fPM', 'Wednesday: 7:00\u202fAM\u2009–\u200911:00\u202fPM', 'Thursday: 7:00\u202fAM\u2009–\u200910:30\u202fPM', 'Friday: 7:00\u202fAM\u2009–\u200911:00\u202fPM', 'Saturday: 7:00\u202fAM\u2009–\u200910:30\u202fPM', 'Sunday: 7:00\u202fAM\u2009–\u200910:00\u202fPM']","['tourist_attraction', 'lodging', 'point_of_interest', 'establishment']",5,32
ChIJ6--gHakZQjERyso1M6Tbd3c,Góc chill bên sông hàn,"26WJ+H7, Hòa Cường, Hải Châu District, Da Nang 550000, Vietnam",16.0463764,108.2306428,,"['tourist_attraction', 'point_of_interest', 'establishment']",,
ChIJg0mY6HIZQjERi32p6NWCCLs,Đầu cầu Phú Lộc,"359P+C89, Thanh Khê Đông, Thanh Khê District, Da Nang, Vietnam",16.068549,108.1858582,,"['tourist_attraction', 'point_of_interest', 'establishment']",,
ChIJP_By1aoZQjERhzsWMXRW0Pg,Cầu Đặng Đình Vân,"359P+C89, Thanh Khê Đông, Thanh Khê District, Da Nang, Vietnam",16.068549,108.1858582,,"['tourist_attraction', 'point_of_interest', 'establishment']",,
ChIJJxPH3yoZQjERMfjOzzLvmxU,Han River Bridge Viewpoint,"36CG+RC6, Hải Châu 1, Hải Châu District, Da Nang 550000, Vietnam",16.0720345,108.2260117,"['Monday: Open 24 hours', 'Tuesday: Open 24 hours', 'Wednesday: Open 24 hours', 'Thursday: Open 24 hours', 'Friday: Open 24 hours', 'Saturday: Open 24 hours', 'Sunday: Open 24 hours']","['tourist_attraction', 'point_of_interest', 'establishment']",,
ChIJlZA7YgEZQjERwBfzBwsUo18,Da Nang specialties as gifts - Duong Le,"516 Núi Thành, Hoà Cường Nam, Hải Châu, Đà Nẵng 550000, Vietnam",16.0343577,108.2224462,"['Monday: 9:00\u202fAM\u2009–\u20099:00\u202fPM', 'Tuesday: 9:00\u202fAM\u2009–\u20099:00\u202fPM', 'Wednesday: 9:00\u202fAM\u2009–\u20099:00\u202fPM', 'Thursday: 9:00\u202fAM\u2009–\u20099:00\u202fPM', 'Friday: 9:00\u202fAM\u2009–\u20099:00\u202fPM', 'Saturday: 9:00\u202fAM\u2009–\u20098:00\u202fPM', 'Sunday: 9:00\u202fAM\u2009–\u20098:00\u202fPM']","['tourist_attraction', 'grocery_or_supermarket', 'health', 'store', 'food', 'point_of_interest', 'establishment']",4.9,60
ChIJTUeHLg8cQjERrG0Ose8xdT4,Hòa Nhơn,"Hòa Nhơn, Hòa Vang, Đà Nẵng, Vietnam",16.0102532,108.1250791,,"['sublocality_level_1', 'sublocality', 'political']",,
ChIJuXM26yYfQjER3au7_H60NPk,Trạm Biến áp 220kV Hòa Khánh,"34GG+JP4, Hoà Khánh Bắc, Liên Chiểu, Da Nang, Vietnam",16.0765013,108.1268325,"['Monday: Open 24 hours', 'Tuesday: Open 24 hours', 'Wednesday: Open 24 hours', 'Thursday: Open 24 hours', 'Friday: Open 24 hours', 'Saturday: Open 24 hours', 'Sunday: Open 24 hours']","['point_of_interest', 'establishment']",3.8,4
ChIJpTFl49UYQjERrzeUIxz8NL4,OYO 1070 Phuoc Ha,"Đồng Kè, Hoà Khánh Bắc, Liên Chiểu, Đà Nẵng 550000, Vietnam",16.0711051,108.1484612,"['Monday: Open 24 hours', 'Tuesday: Open 24 hours', 'Wednesday: Open 24 hours', 'Thursday: Open 24 hours', 'Friday: Open 24 hours', 'Saturday: Open 24 hours', 'Sunday: Open 24 hours']","['lodging', 'point_of_interest', 'establishment']",3.7,13
ChIJV2kO5NMYQjER8V448nZdOBQ,Agribank Liên Chiểu,"136 Nguyễn Lương Bằng, Hoà Khánh Bắc, Liên Chiểu, Đà Nẵng 550000, Vietnam",16.0769124,108.1487496,"['Monday: 7:30\u202fAM\u2009–\u20095:00\u202fPM', 'Tuesday: 7:30\u202fAM\u2009–\u20095:00\u202fPM', 'Wednesday: 7:30\u202fAM\u2009–\u20095:00\u202fPM', 'Thursday: 7:30\u202fAM\u2009–\u20095:00\u202fPM', 'Friday: 7:30\u202fAM\u2009–\u20095:00\u202fPM', 'Saturday: Closed', 'Sunday: Closed']","['bank', 'finance', 'point_of_interest', 'establishment']",3.6,26
ChIJ5U7BV_seQjERZe_6Fy26zO4,People's Committee of Hoa Son commune,"3494+9MX, Âu Cơ, Hoà Sơn, Hòa Vang, Đà Nẵng, Vietnam",16.068497,108.1067278,"['Monday: 8:00\u2009–\u200911:30\u202fAM, 1:30\u2009–\u20095:30\u202fPM', 'Tuesday: 8:00\u2009–\u200911:30\u202fAM, 1:30\u2009–\u20095:30\u202fPM', 'Wednesday: 8:00\u2009–\u200911:30\u202fAM, 1:30\u2009–\u20095:30\u202fPM', 'Thursday: 8:00\u2009–\u200911:30\u202fAM, 1:30\u2009–\u20095:30\u202fPM', 'Friday: 8:00\u2009–\u200911:30\u202fAM, 1:30\u2009–\u20095:30\u202fPM', 'Saturday: 8:00\u2009–\u200911:30\u202fAM', 'Sunday: Closed']","['local_government_office', 'point_of_interest', 'establishment']",3.6,43
ChIJj6lgtisZQjER94qlEThWD4Y,OYO 638 Thien Nam Hotel,"05 Đoàn Phú Tứ, Hoà Khánh Bắc, Liên Chiểu, Đà Nẵng 550000, Vietnam",16.0688773,108.1458207,"['Monday: Open 24 hours', 'Tuesday: Open 24 hours', 'Wednesday: Open 24 hours', 'Thursday: Open 24 hours', 'Friday: Open 24 hours', 'Saturday: Open 24 hours', 'Sunday: Open 24 hours']","['lodging', 'point_of_interest', 'establishment']",2.3,20
ChIJy5Y8eB0fQjERh8vTOkqZ_RE,Tran Quang Khai Secondary School,"34F5+8R9, Âu Cơ, Hoà Sơn, Hòa Vang, Đà Nẵng, Vietnam",16.0732922,108.1096053,,"['school', 'point_of_interest', 'establishment']",4.1,14
ChIJAQAAAJQeQjER0xFDDlIx8oA,Trạm Y tế xã Hoà Sơn,"34F6+698, Âu Cơ, Hoà Sơn, Hòa Vang, Đà Nẵng, Vietnam",16.0730383,108.1109616,,"['hospital', 'health', 'point_of_interest', 'establishment']",4,2
ChIJY3yT3IweQjERnbDRpKk8b3A,Nhà thờ Phú Thượng,"AH1, Hoà Sơn, Hòa Vang, Đà Nẵng, Vietnam",16.0504981,108.1037059,,"['church', 'place_of_worship', 'point_of_interest', 'establishment']",4.4,111
ChIJc0nvnZEeQjER1TNTnHlI61w,mobifone,"Đường DT 602 Hòa Sơn, Hoà Sơn, Hòa Vang, Đà Nẵng 550900, Vietnam",16.044452,108.110189,"['Monday: 7:30\u2009–\u200911:30\u202fAM, 1:30\u2009–\u20096:00\u202fPM', 'Tuesday: 7:30\u2009–\u200911:30\u202fAM, 1:30\u2009–\u20096:00\u202fPM', 'Wednesday: 7:30\u2009–\u200911:30\u202fAM, 1:30\u2009–\u20096:00\u202fPM', 'Thursday: 7:30\u2009–\u200911:30\u202fAM, 1:30\u2009–\u20096:00\u202fPM', 'Friday: 7:30\u2009–\u200911:30\u202fAM, 1:30\u2009–\u20096:00\u202fPM', 'Saturday: 7:30\u2009–\u200911:30\u202fAM, 1:30\u2009–\u20096:00\u202fPM', 'Sunday: Closed']","['point_of_interest', 'establishment']",2,1
ChIJcay01foeQjERKmERCxZYf20,Công Ty TNHH Sản Xuất Và Thương Mại Lộc Minh Nguyên,"Thôn Hòa Khê, Xã Hoà Sơn, Huyện Hoà Vang, Thành Phố Đà Nẵng, 3484+4RV, Hoà Sơn, Hòa Vang, Đà Nẵng, Vietnam",16.0653503,108.107036,"['Monday: 7:00\u202fAM\u2009–\u20095:30\u202fPM', 'Tuesday: 7:00\u202fAM\u2009–\u20095:30\u202fPM', 'Wednesday: 7:00\u202fAM\u2009–\u20095:30\u202fPM', 'Thursday: 7:00\u202fAM\u2009–\u20095:30\u202fPM', 'Friday: 7:00\u202fAM\u2009–\u20095:30\u202fPM', 'Saturday: 7:00\u202fAM\u2009–\u20095:30\u202fPM', 'Sunday: 8:00\u202fAM\u2009–\u20093:00\u202fPM']","['point_of_interest', 'store', 'establishment']",,
ChIJX_cQRfceQjERyh7Kls_35i0,Petrolimex 26,"3462+X5H, Hòa Sơn, Hòa Vang, Da Nang, Vietnam",16.0624406,108.1004922,"['Monday: 6:00\u202fAM\u2009–\u20098:00\u202fPM', 'Tuesday: 6:00\u202fAM\u2009–\u20098:00\u202fPM', 'Wednesday: 6:00\u202fAM\u2009–\u20098:00\u202fPM', 'Thursday: 6:00\u202fAM\u2009–\u20098:00\u202fPM', 'Friday: 6:00\u202fAM\u2009–\u20098:00\u202fPM', 'Saturday: 6:00\u202fAM\u2009–\u20098:00\u202fPM', 'Sunday: 6:00\u202fAM\u2009–\u20098:00\u202fPM']","['gas_station', 'point_of_interest', 'establishment']",3.8,32
ChIJLanfivkeQjERkxfdC7PG6yo,Công Ty TNHH - TMTH Giang Sơn,"3472+RFC, Hòa Sơn, Hòa Vang, Da Nang, Vietnam",16.0645525,108.1011494,"['Monday: 7:00\u202fAM\u2009–\u20095:00\u202fPM', 'Tuesday: 7:00\u202fAM\u2009–\u20095:00\u202fPM', 'Wednesday: 7:00\u202fAM\u2009–\u20095:00\u202fPM', 'Thursday: 7:00\u202fAM\u2009–\u20095:00\u202fPM', 'Friday: 7:00\u202fAM\u2009–\u20095:00\u202fPM', 'Saturday: 7:00\u202fAM\u2009–\u20095:00\u202fPM', 'Sunday: 7:00\u202fAM\u2009–\u20095:00\u202fPM']","['shopping_mall', 'point_of_interest', 'establishment']",4.3,10
ChIJ3_9W9OEeQjERL9qoGFAs0bg,Trại Cút Vườn Đồi,"Thôn An Ngãi Đông, Tp, Hoà Sơn, Hòa Vang, Đà Nẵng, Vietnam",16.0722977,108.1133716,"['Monday: Open 24 hours', 'Tuesday: Open 24 hours', 'Wednesday: Open 24 hours', 'Thursday: Open 24 hours', 'Friday: Open 24 hours', 'Saturday: Open 24 hours', 'Sunday: Open 24 hours']","['store', 'point_of_interest', 'establishment']",,
ChIJm8a0zMQYQjER_uCS3X4Jqh4,Trung Tâm Giáo dục nghề nghiệp Đà Nẵng,"657 Trường Chinh, Quận Cẩm Lệ và, 278 Âu Cơ, Quận Liên Chiểu, 278 Âu Cơ, Hoà Khánh Bắc, Liên Chiểu, Đà Nẵng, Vietnam",16.0721358,108.1400125,"['Monday: 7:30\u202fAM\u2009–\u20098:30\u202fPM', 'Tuesday: 7:30\u202fAM\u2009–\u20098:30\u202fPM', 'Wednesday: 7:30\u202fAM\u2009–\u20098:30\u202fPM', 'Thursday: 7:30\u202fAM\u2009–\u20098:30\u202fPM', 'Friday: 7:30\u202fAM\u2009–\u20098:30\u202fPM', 'Saturday: 7:30\u202fAM\u2009–\u20097:00\u202fPM', 'Sunday: Closed']","['point_of_interest', 'establishment']",4.5,13
ChIJg9jYxYQeQjERWZ7nmTRePiw,Quán Cô Thúy,"24P4+GH3, AH1, Phú Hạ, Hòa Vang, Đà Nẵng, Vietnam",16.0362602,108.1064317,"['Monday: 6:30\u202fAM\u2009–\u200910:00\u202fPM', 'Tuesday: 6:30\u202fAM\u2009–\u200910:00\u202fPM', 'Wednesday: 6:30\u202fAM\u2009–\u200910:00\u202fPM', 'Thursday: 6:30\u202fAM\u2009–\u200910:00\u202fPM', 'Friday: 6:30\u202fAM\u2009–\u200910:00\u202fPM', 'Saturday: 6:30\u202fAM\u2009–\u200910:00\u202fPM', 'Sunday: 6:30\u202fAM\u2009–\u200910:00\u202fPM']","['restaurant', 'food', 'point_of_interest', 'establishment']",3.8,29
ChIJn1qsYiUfQjER8Owbv669vsY,Packaging paper mill Tan Long,"Đường Số 10, Hoà Khánh Bắc, Liên Chiểu, Đà Nẵng, Vietnam",16.0813555,108.1311222,"['Monday: Open 24 hours', 'Tuesday: Open 24 hours', 'Wednesday: Open 24 hours', 'Thursday: Open 24 hours', 'Friday: Open 24 hours', 'Saturday: Open 24 hours', 'Sunday: Closed']","['point_of_interest', 'establishment']",4.8,8
ChIJYS9eZyIfQjERBgPe12BTccs,Công Ty TNHH Lâm Sản Việt Lang,"Lô TV 01, Cụm CN Thanh Vinh, Hoà Khánh Bắc, Liên Chiểu, Đà Nẵng, Vietnam",16.0786302,108.1207037,,"['point_of_interest', 'establishment']",3.7,9
ChIJ8TaDOhkfQjERniQp8lhCyew,"LAFIEN VINA CO.,LTD","Đường số 11B, Hoà Liên, Liên Chiểu, Đà Nẵng, Vietnam",16.0803155,108.1154679,"['Monday: 7:30\u202fAM\u2009–\u20094:40\u202fPM', 'Tuesday: 7:30\u202fAM\u2009–\u20094:40\u202fPM', 'Wednesday: 7:30\u202fAM\u2009–\u20094:40\u202fPM', 'Thursday: 7:30\u202fAM\u2009–\u20094:40\u202fPM', 'Friday: 7:30\u202fAM\u2009–\u20094:40\u202fPM', 'Saturday: 7:30\u202fAM\u2009–\u20094:40\u202fPM', 'Sunday: Closed']","['point_of_interest', 'establishment']",4.1,7
ChIJr6EEdy4fQjERZsQKvZOHXxM,Hòa Khánh Bắc,"Hòa Khánh Bắc, Liên Chiểu, Da Nang, Vietnam",16.0770582,108.1369375,,"['sublocality_level_1', 'sublocality', 'political']",,
ChIJcc4HqC4fQjERakX-maWi8u8,Công Ty TNHH Vật Liệu Xây Dựng Đông Nguyên,"Khu Công Nghiệp Hòa Khánh, Thôn Thanh Vinh, Phường Hòa Khánh Bắc, Quận Liên Chiểu, 34J7+CRX, Hoà Khánh Bắc, Liên Chiểu, Đà Nẵng, Vietnam",16.081103,108.1146023,,"['point_of_interest', 'establishment']",5,1
ChIJoV_2hy8fQjERMvJqxTsHYSM,CÔNG TY CỔ PHẦN CƠ ĐIỆN LẠNH SEARE,"Đường số 10, KCN Hòa Khánh, P.Hòa Khánh Bắc, Q, Hoà Khánh Bắc, Liên Chiểu, Đà Nẵng 550000, Vietnam",16.0807342,108.1305694,"['Monday: 8:00\u202fAM\u2009–\u20095:00\u202fPM', 'Tuesday: 8:00\u202fAM\u2009–\u20095:00\u202fPM', 'Wednesday: 8:00\u202fAM\u2009–\u20095:00\u202fPM', 'Thursday: 8:00\u202fAM\u2009–\u20095:00\u202fPM', 'Friday: 8:00\u202fAM\u2009–\u20095:00\u202fPM', 'Saturday: 8:00\u202fAM\u2009–\u20095:00\u202fPM', 'Sunday: Closed']","['point_of_interest', 'establishment']",4.8,5
ChIJBXZS0igfQjERkyL0vO3doKU,Công Ty Cp Dệt Hòa Khánh - Danatex,"Lô B Số 9, Hoà Khánh Bắc, Liên Chiểu, Đà Nẵng, Vietnam",16.0771402,108.133589,,"['point_of_interest', 'establishment']",3.7,7
ChIJb7mLMCQfQjERjYQ7zrWaC88,Cafe New Life 424,"424 Âu Cơ, Hoà Khánh Bắc, Liên Chiểu, Đà Nẵng, Vietnam",16.0788079,108.1275156,,"['cafe', 'point_of_interest', 'food', 'establishment']",4,32
ChIJR-9Rny4fQjERw5RWykyXa2k,"Huynh Duc Production & Service Trading Co.,Ltd","Lô U7, đường 10B, Khu Công Nghiệp Hoà Khánh Mở Rộng, Hoà Liên, Liên Chiểu, Đà Nẵng, Vietnam",16.0821533,108.1189041,"['Monday: 7:15\u202fAM\u2009–\u20094:30\u202fPM', 'Tuesday: 7:15\u202fAM\u2009–\u20094:30\u202fPM', 'Wednesday: 7:15\u202fAM\u2009–\u20094:30\u202fPM', 'Thursday: 7:15\u202fAM\u2009–\u20094:30\u202fPM', 'Friday: 7:15\u202fAM\u2009–\u20094:30\u202fPM', 'Saturday: 7:15\u202fAM\u2009–\u20094:30\u202fPM', 'Sunday: Closed']","['point_of_interest', 'establishment']",5,3
ChIJMwA4NV0eQjERqlQ5BlE_vCs,Nhà thờ Giáo xứ Hòa Ninh,"333M+Q9M, Đ. 602, Hoà Ninh, Hòa Vang, Đà Nẵng, Vietnam",16.0544664,108.0834098,,"['church', 'place_of_worship', 'point_of_interest', 'establishment']",4.4,41
ChIJ65K-UzEYQjER41DHfvZbJ-Q,"ĐIỆN MÁY, ĐIỆN LẠNH HÀ DŨNG - ĐIỆN MÁY ĐIỆN LẠNH GIÁ RẺ ĐÀ NẴNG","Tổ 61 Đ. Nam Cao, Hoà Khánh Nam, Liên Chiểu, Đà Nẵng 550000, Vietnam",16.0564318,108.147034,"['Monday: Open 24 hours', 'Tuesday: Open 24 hours', 'Wednesday: Open 24 hours', 'Thursday: Open 24 hours', 'Friday: Open 24 hours', 'Saturday: Open 24 hours', 'Sunday: Open 24 hours']","['shopping_mall', 'point_of_interest', 'establishment']",4.1,12
ChIJ9_SMuyUfQjERenxZB0CW2u8,Công Ty Tnhh Tiếp Vận Vinafco,"34HH+RMR, Số 8, Hoà Khánh Bắc, Liên Chiểu, Đà Nẵng, Vietnam",16.0796044,108.1291258,,"['point_of_interest', 'establishment']",,
ChIJk9BHVS8fQjERWgiczX0Fui4,Công Ty TNHH Shinih (Việt Nam),"Lô D3, KCN Hoà Khánh, Ðường Số 4, Hoà Khánh Bắc, Liên Chiểu, Đà Nẵng, Vietnam",16.0798971,108.1283108,,"['point_of_interest', 'establishment']",2,1
ChIJf9AF5S0ZQjER3qllj5odPhM,Nhật Ngữ Tanpopo Đà Nẵng,"297/11 Âu Cơ, Hoà Khánh Bắc, Liên Chiểu, Đà Nẵng 550000, Vietnam",16.0721765,108.1384907,"['Monday: Open 24 hours', 'Tuesday: Open 24 hours', 'Wednesday: Open 24 hours', 'Thursday: Open 24 hours', 'Friday: Open 24 hours', 'Saturday: Open 24 hours', 'Sunday: Closed']","['school', 'point_of_interest', 'establishment']",5,4
ChIJjey8FuYYQjERSWRJZ2GpSK4,Công Ty TNHH TCIE Việt Nam,"Lô U8 - U11, Đường số 5, Mở rộng, Khu Công Nghiệp, Hoà Liên, Liên Chiểu, Đà Nẵng, Vietnam",16.0848981,108.1182955,,"['point_of_interest', 'establishment']",4.2,45
ChIJgaKP_BgfQjERrHPiZxt5QNI,Công Ty TNHH May Mặc Whitex (Việt Nam),"Lô U6-3, Đường Số 4B, Khu Công Nghiệp Hòa Khánh Mở Rộng, Quận Liên Chiểu, Thành Phố Đà Nẵng, Hoà Liên, Hòa Vang, Đà Nẵng, Vietnam",16.0835059,108.1212903,"['Monday: 8:00\u202fAM\u2009–\u20094:30\u202fPM', 'Tuesday: 8:00\u202fAM\u2009–\u20094:30\u202fPM', 'Wednesday: 8:00\u202fAM\u2009–\u20094:30\u202fPM', 'Thursday: 8:00\u202fAM\u2009–\u20094:30\u202fPM', 'Friday: 8:00\u202fAM\u2009–\u20094:30\u202fPM', 'Saturday: 8:00\u202fAM\u2009–\u20094:30\u202fPM', 'Sunday: Closed']","['point_of_interest', 'establishment']",5,4
ChIJfZEJSgUfQjERFKJPaK6uLcI,Nhà máy sản xuất gia công mỹ phẩm 3C,"34M4+HQ9, Hòa Liên, Hòa Vang, Da Nang, Vietnam",16.0839129,108.1069858,"['Monday: 8:00\u202fAM\u2009–\u20096:00\u202fPM', 'Tuesday: 8:00\u202fAM\u2009–\u20096:00\u202fPM', 'Wednesday: 8:00\u202fAM\u2009–\u20096:00\u202fPM', 'Thursday: 8:00\u202fAM\u2009–\u20096:00\u202fPM', 'Friday: 8:00\u202fAM\u2009–\u20096:00\u202fPM', 'Saturday: 8:00\u202fAM\u2009–\u20096:00\u202fPM', 'Sunday: Closed']","['point_of_interest', 'establishment']",4.5,17
ChIJO8JEzhofQjEREQ8d9OiY_-I,DANA Steel Corporation-UC,"Đường số 11B, Hoà Liên, Hòa Vang, Đà Nẵng, Vietnam",16.0846197,108.1093312,,"['finance', 'point_of_interest', 'establishment']",5,1
ChIJQQCaYQcZQjERj4LhhkqWC8w,Công Ty Cổ Phần Acecook Việt Nam - Chi Nhánh Đà Nẵng,"Khu Công Nghiệp Hòa Khánh, Lô D3, Đường 10, Q. Liên Chiểu, Tp. Đà Nẵng, Hoà Khánh Bắc, Liên Chiểu, Đà Nẵng, Vietnam",16.0808505,108.1300312,"['Monday: 7:30\u202fAM\u2009–\u20094:20\u202fPM', 'Tuesday: 7:30\u202fAM\u2009–\u20094:20\u202fPM', 'Wednesday: 7:30\u202fAM\u2009–\u20094:20\u202fPM', 'Thursday: 7:30\u202fAM\u2009–\u20094:20\u202fPM', 'Friday: 7:30\u202fAM\u2009–\u20094:20\u202fPM', 'Saturday: Closed', 'Sunday: Closed']","['food', 'point_of_interest', 'establishment']",4.3,37
ChIJD31gzisfQjERATnze2xKsJk,Công ty TNHH Dịch Vụ Vận Tải KIM THÀNH LỢI,"34FQ+R5C, Hoà Khánh Bắc, Liên Chiểu, Da Nang, Vietnam",16.0745539,108.1378984,"['Monday: 7:30\u202fAM\u2009–\u20095:00\u202fPM', 'Tuesday: 7:30\u202fAM\u2009–\u20095:00\u202fPM', 'Wednesday: 7:30\u202fAM\u2009–\u20095:00\u202fPM', 'Thursday: 7:30\u202fAM\u2009–\u20095:00\u202fPM', 'Friday: 7:30\u202fAM\u2009–\u20095:00\u202fPM', 'Saturday: 7:30\u202fAM\u2009–\u20095:00\u202fPM', 'Sunday: Closed']","['point_of_interest', 'establishment']",4.1,19
ChIJpTQ5M5UZQjERvd5y2c--2OU,Searee -,"Road No. 10, Hoa Khanh Industrial zone-, Hoà Khánh Bắc, Liên Chiểu, Đà Nẵng, Vietnam",16.0803751,108.1312529,"['Monday: 8:00\u202fAM\u2009–\u20095:00\u202fPM', 'Tuesday: 8:00\u202fAM\u2009–\u20095:00\u202fPM', 'Wednesday: 8:00\u202fAM\u2009–\u20095:00\u202fPM', 'Thursday: 8:00\u202fAM\u2009–\u20095:00\u202fPM', 'Friday: 8:00\u202fAM\u2009–\u20095:00\u202fPM', 'Saturday: Closed', 'Sunday: Closed']","['general_contractor', 'store', 'point_of_interest', 'establishment']",5,1
ChIJA8b6DS8fQjERnJyeVaqiieQ,Công Ty Cp Kết Cấu Thép Bmf,"34HM+R4P, Đ. số 10, Hoà Khánh Bắc, Liên Chiểu, Đà Nẵng, Vietnam",16.0795786,108.1328219,,"['point_of_interest', 'general_contractor', 'establishment']",5,2
ChIJt5Kgdz0fQjER0xZPYoblavI,Công Ty TNHH Thương Mại Và Dịch Vụ Cơ Khí Thiên Hân,"34MF+R49, Số 4, Hoà Khánh Bắc, Liên Chiểu, Đà Nẵng, Vietnam",16.0845347,108.1228522,"['Monday: 7:00\u202fAM\u2009–\u20095:00\u202fPM', 'Tuesday: 7:00\u202fAM\u2009–\u20095:00\u202fPM', 'Wednesday: 7:00\u202fAM\u2009–\u20095:00\u202fPM', 'Thursday: 7:00\u202fAM\u2009–\u20095:00\u202fPM', 'Friday: 7:00\u202fAM\u2009–\u20095:00\u202fPM', 'Saturday: 7:00\u202fAM\u2009–\u20095:00\u202fPM', 'Sunday: Closed']","['point_of_interest', 'establishment']",5,4
ChIJ-xnCxSsfQjERTzQmaKM8CPQ,Công ty TNHH Thương mại Tổng hợp Tuấn Việt - CN Đà Nẵng,"34FQ+W7X, Đường số 2, Hoà Khánh Bắc, Liên Chiểu, Đà Nẵng, Vietnam",16.0748531,108.1382468,"['Monday: 7:30\u202fAM\u2009–\u20095:30\u202fPM', 'Tuesday: 7:30\u202fAM\u2009–\u20095:30\u202fPM', 'Wednesday: 7:30\u202fAM\u2009–\u20095:30\u202fPM', 'Thursday: 7:30\u202fAM\u2009–\u20095:30\u202fPM', 'Friday: 7:30\u202fAM\u2009–\u20095:30\u202fPM', 'Saturday: 7:30\u202fAM\u2009–\u20095:30\u202fPM', 'Sunday: Closed']","['point_of_interest', 'establishment']",4.1,21
ChIJtfZUmyofQjERb1vN65DZFeE,Ngoc Chau Motel,"225 Âu Cơ, Hoà Khánh Bắc, Liên Chiểu, Đà Nẵng, Vietnam",16.0715543,108.1408167,,"['lodging', 'restaurant', 'food', 'point_of_interest', 'establishment']",3.9,7
ChIJUaMjQdYYQjERFRXIT89zQw8,Công Ty Tnhh Giải Pháp Mạng Truyền Thông Xã Hội Số,"196 Âu Cơ, Hoà Khánh Bắc, Liên Chiểu, Đà Nẵng 550000, Vietnam",16.0712074,108.1433737,,"['point_of_interest', 'establishment']",,
ChIJVVVVVSkfQjER2oWz7ToMuYI,Pacific Dinco JSC,"Lô C20, CCN Thanh Vinh, Hoà Khánh Bắc, Liên Chiểu, Đà Nẵng, Vietnam",16.0770382,108.1368392,"['Monday: 7:00\u202fAM\u2009–\u20095:00\u202fPM', 'Tuesday: 7:00\u202fAM\u2009–\u20095:00\u202fPM', 'Wednesday: 7:00\u202fAM\u2009–\u20095:00\u202fPM', 'Thursday: 7:00\u202fAM\u2009–\u20095:00\u202fPM', 'Friday: 7:00\u202fAM\u2009–\u20095:00\u202fPM', 'Saturday: 7:00\u202fAM\u2009–\u20095:00\u202fPM', 'Sunday: 9:30\u202fAM\u2009–\u20091:00\u202fPM']","['store', 'point_of_interest', 'establishment']",4.4,5
ChIJl5kOOiUfQjERNx3n7MQJ_wo,Công Ty Cp Giấy Vàng,"34MH+3J8, Đ. số 10, Hoà Khánh Bắc, Liên Chiểu, Đà Nẵng, Vietnam",16.082661,108.1290883,,"['point_of_interest', 'establishment']",4,2
ChIJIxuBFisZQjERezxPeB4VrUk,Coffe Vừng Lộc,"348V+MJW, Hoà Khánh Bắc, Liên Chiểu, Da Nang 550000, Vietnam",16.0667256,108.1440833,,"['cafe', 'point_of_interest', 'food', 'establishment']",4,7
ChIJ3yNgqi4fQjER0TRHIuz8PrE,"Khoi Nguyen Applied Technology Co., Ltd","Lô 71 Khu Thanh Vinh, Hoà Khánh Bắc, Liên Chiểu, Đà Nẵng, Vietnam",16.0772438,108.1368517,,"['point_of_interest', 'store', 'establishment']",5,1
ChIJE8UN4DwfQjER7GYqhy5OjYs,CTy TNHH Dược phẩm Đông Á - Chi nhánh Đà Nẵng,"KCN Hòa Khánh, Số 4, Hoà Khánh Bắc, Liên Chiểu, Đà Nẵng, Vietnam",16.0855201,108.122174,"['Monday: 8:00\u202fAM\u2009–\u20096:00\u202fPM', 'Tuesday: 8:00\u202fAM\u2009–\u20096:00\u202fPM', 'Wednesday: 8:00\u202fAM\u2009–\u20096:00\u202fPM', 'Thursday: 8:00\u202fAM\u2009–\u20096:00\u202fPM', 'Friday: 8:00\u202fAM\u2009–\u20096:00\u202fPM', 'Saturday: 8:00\u202fAM\u2009–\u20096:00\u202fPM', 'Sunday: Closed']","['point_of_interest', 'establishment']",3.9,10
ChIJkTedF0kYQjERFzz3s4rJi2w,Dầu Tràm Huế tại Đà Nẵng,"471 Hoàng Văn Thái, Hoà Khánh Nam, Cẩm Lệ, Đà Nẵng 590000, Vietnam",16.0483964,108.1462586,"['Monday: Open 24 hours', 'Tuesday: Open 24 hours', 'Wednesday: Open 24 hours', 'Thursday: Open 24 hours', 'Friday: Open 24 hours', 'Saturday: Open 24 hours', 'Sunday: Open 24 hours']","['spa', 'point_of_interest', 'establishment']",4.4,17
ChIJN3ReLSUfQjER86F4w6KfZw8,Khu Công nghiệp Hòa Khánh,"Lô e, 34MH+8GJ, Đường số 7, khu công nghiệp, Liên Chiểu, Đà Nẵng, Vietnam",16.0833431,108.1287625,"['Monday: Open 24 hours', 'Tuesday: Open 24 hours', 'Wednesday: Open 24 hours', 'Thursday: Open 24 hours', 'Friday: Open 24 hours', 'Saturday: Open 24 hours', 'Sunday: Open 24 hours']","['general_contractor', 'point_of_interest', 'establishment']",4,184
ChIJ88kTOjsfQjERDxrXgxIBu54,HIFILL HOLDING COMPANY,"34MG+PRJ, Đ. số 10, Hoà Khánh Bắc, Liên Chiểu, Đà Nẵng, Vietnam",16.0843414,108.1270069,,"['point_of_interest', 'establishment']",4.6,7
ChIJzcMsFysZQjER4D1VIO0hgnQ,Hariver Fitnes center,"214 Đ. Phạm Như Xương, Hoà Khánh Bắc, Liên Chiểu, Đà Nẵng 550000, Vietnam",16.0670491,108.1446971,"['Monday: 5:00\u202fAM\u2009–\u20098:00\u202fPM', 'Tuesday: 5:00\u202fAM\u2009–\u20098:00\u202fPM', 'Wednesday: 5:00\u202fAM\u2009–\u20098:00\u202fPM', 'Thursday: 5:00\u202fAM\u2009–\u20098:00\u202fPM', 'Friday: 5:00\u202fAM\u2009–\u20098:00\u202fPM', 'Saturday: 5:00\u202fAM\u2009–\u20098:00\u202fPM', 'Sunday: 5:00\u202fAM\u2009–\u20098:00\u202fPM']","['gym', 'health', 'point_of_interest', 'establishment']",4.7,6
ChIJAXn1bTIZQjERM6PVtglTlRU,CÔNG TY TNHH CAO VIỆT ( INOX CAVICO),"Khánh Sơn, Hoà Khánh Nam, Liên Chiểu, Đà Nẵng 550000, Vietnam",16.0584647,108.1470434,"['Monday: 8:00\u202fAM\u2009–\u20096:00\u202fPM', 'Tuesday: 8:00\u202fAM\u2009–\u20096:00\u202fPM', 'Wednesday: 8:00\u202fAM\u2009–\u20096:00\u202fPM', 'Thursday: 8:00\u202fAM\u2009–\u20096:00\u202fPM', 'Friday: 8:00\u202fAM\u2009–\u20096:00\u202fPM', 'Saturday: 8:00\u202fAM\u2009–\u20096:00\u202fPM', 'Sunday: Closed']","['point_of_interest', 'establishment']",5,3
ChIJew-GOjsfQjERU5-5VL8p0QU,HIFILL FILTER,"34MG+PXV, Đ. số 10, Hoà Khánh Bắc, Liên Chiểu, Đà Nẵng, Vietnam",16.0843649,108.1274085,,"['point_of_interest', 'establishment']",4.8,4
ChIJGyeYoC4fQjERRQ1N0ziSCGE,VINASA Agricultural Product & Forestry Product Processing Factory,"Khu Công Nghiệp Hòa Khánh, Đường 11, Quận Liên Chiểu, Hoà Khánh Bắc, Liên Chiểu, Đà Nẵng, Vietnam",16.078218,108.1368918,,"['point_of_interest', 'establishment']",,
ChIJG5_ejS0ZQjERgaAWD9y77E8,Công Ty TNHH Vật Liệu Chịu Lửa - Tường Minh,"Hoà Khánh Nam, Liên Chiểu, Đà Nẵng 550000, Vietnam",16.059826,108.1469656,"['Monday: 7:30\u202fAM\u2009–\u20095:30\u202fPM', 'Tuesday: 7:30\u202fAM\u2009–\u20095:30\u202fPM', 'Wednesday: 7:30\u202fAM\u2009–\u20095:30\u202fPM', 'Thursday: 7:30\u202fAM\u2009–\u20095:30\u202fPM', 'Friday: 7:30\u202fAM\u2009–\u20095:30\u202fPM', 'Saturday: 7:30\u202fAM\u2009–\u20095:00\u202fPM', 'Sunday: Open 24 hours']","['store', 'point_of_interest', 'establishment']",3.9,11
ChIJNTchqCoZQjERFDsjpSB0WGM,Quán Cháo Vịt Ông Chủ Nhỏ,"157 Âu Cơ, Hoà Khánh Bắc, Liên Chiểu, Đà Nẵng 550000, Vietnam",16.0709255,108.1432857,"['Monday: 2:00\u2009–\u20099:00\u202fPM', 'Tuesday: 2:00\u2009–\u20099:00\u202fPM', 'Wednesday: 2:00\u2009–\u20099:00\u202fPM', 'Thursday: 2:00\u2009–\u20099:00\u202fPM', 'Friday: 2:00\u2009–\u20099:00\u202fPM', 'Saturday: 2:00\u2009–\u20099:00\u202fPM', 'Sunday: 2:00\u2009–\u20099:00\u202fPM']","['restaurant', 'food', 'point_of_interest', 'establishment']",4.7,171
ChIJK8FDEiYZQjERUFRW6hozIkw,Lam Nguyen Gia Corp,"394 Âu Cơ, Hoà Khánh Bắc, Liên Chiểu, Đà Nẵng 550000, Vietnam",16.071214,108.1432124,"['Monday: 3:00\u2009–\u20093:30\u202fAM', 'Tuesday: 3:00\u2009–\u20093:30\u202fAM', 'Wednesday: 3:00\u2009–\u20093:30\u202fAM', 'Thursday: 3:00\u2009–\u20093:30\u202fAM', 'Friday: 3:00\u2009–\u20093:30\u202fAM', 'Saturday: Closed', 'Sunday: Closed']","['general_contractor', 'point_of_interest', 'establishment']",,
ChIJS11soCsZQjERFF70y3tWAfQ,The Hinh Store,"348W+H9R, Đ. Phạm Như Xương, Hoà Khánh Nam, Liên Chiểu, Đà Nẵng 550000, Vietnam",16.0664856,108.145895,"['Monday: 8:00\u202fAM\u2009–\u20095:00\u202fPM', 'Tuesday: 8:00\u202fAM\u2009–\u20095:00\u202fPM', 'Wednesday: 8:00\u202fAM\u2009–\u20095:00\u202fPM', 'Thursday: 8:00\u202fAM\u2009–\u20095:00\u202fPM', 'Friday: 8:00\u202fAM\u2009–\u20095:00\u202fPM', 'Saturday: 8:00\u202fAM\u2009–\u20095:00\u202fPM', 'Sunday: 8:00\u202fAM\u2009–\u20095:00\u202fPM']","['store', 'point_of_interest', 'establishment']",4.3,16
ChIJ15vooCoZQjER0nAbGjReVXo,Quán Ăn Cô Triều Đại Lộc,"216 Âu Cơ, Hoà Khánh Bắc, Liên Chiểu, Đà Nẵng 550000, Vietnam",16.0707348,108.144132,,"['restaurant', 'food', 'point_of_interest', 'establishment']",5,1
ChIJOw4PvSoZQjERlVr8lcKepVE,VPDD Công Ty TNHH Phát Triển Phần Mềm Thương Hiệu Việt,"349V+VW4, Lê A, Hoà Khánh Bắc, Liên Chiểu, Đà Nẵng 550000, Vietnam",16.0696378,108.1448385,"['Monday: Open 24 hours', 'Tuesday: Open 24 hours', 'Wednesday: Open 24 hours', 'Thursday: Open 24 hours', 'Friday: Open 24 hours', 'Saturday: Open 24 hours', 'Sunday: Open 24 hours']","['point_of_interest', 'establishment']",4.6,5
ChIJC33YXO71QTERG32sPxVoVqE,Hòa Ninh,"Hòa Ninh, Hòa Vang, Đà Nẵng, Vietnam",16.0482758,108.0124469,,"['sublocality_level_1', 'sublocality', 'political']",,
ChIJY0B6Qw72QTERHSgsnZO_dwU,Parking lot 4-7 seats,"22GP+784, Hòa Ninh, Hòa Vang, Da Nang, Vietnam",16.0256254,108.0358437,,"['parking', 'point_of_interest', 'establishment']",4.1,66
ChIJ2dQQiA72QTERnSn0QjUDJiw,Toc Tien Waterfall station,"22GJ+QCF, Hòa Ninh, Hòa Vang, Da Nang, Vietnam",16.02693,108.0310383,,"['amusement_park', 'point_of_interest', 'establishment']",4.4,71
ChIJyUQ4aw72QTERCXl5YV-4U1w,Ba Na Hills SunWorld,"Tuyến cáp treo lên Bà Nà Hills, Hoà Ninh, Hòa Vang, Đà Nẵng, Vietnam",16.0265401,108.032604,"['Monday: 8:00\u202fAM\u2009–\u20095:30\u202fPM', 'Tuesday: 8:00\u202fAM\u2009–\u20095:30\u202fPM', 'Wednesday: 8:00\u202fAM\u2009–\u20095:30\u202fPM', 'Thursday: 8:00\u202fAM\u2009–\u20095:30\u202fPM', 'Friday: 8:00\u202fAM\u2009–\u20095:30\u202fPM', 'Saturday: 8:00\u202fAM\u2009–\u20097:30\u202fPM', 'Sunday: 8:00\u202fAM\u2009–\u20095:30\u202fPM']","['amusement_park', 'point_of_interest', 'establishment']",4.5,37463
ChIJUfrVJSQeQjER-2Dgu0fSCj4,Trại Điên Homestay,"Unnamed Road,, 3373+CPM, Hoà Ninh, Hòa Vang, Đà Nẵng, Vietnam",16.0635848,108.0543107,,"['lodging', 'point_of_interest', 'establishment']",4.3,62
ChIJB7NiEoP2QTERm1eL-dZuTKY,Giếng Trời,"Hòa Ninh, Hòa Vang, Da Nang, Vietnam",16.0347599,107.9909156,,"['tourist_attraction', 'point_of_interest', 'establishment']",4.3,83
ChIJh0eMGMD1QTER-nvSblgPzAA,Khs & S Paint Shop,"324F+WG2, Phường An Sương, Hòa Vang, Đà Nẵng, Vietnam",16.0572665,108.0237766,,"['point_of_interest', 'establishment']",,
ChIJq6qqqur1QTERbxwGY8NZfsA,Dong Le Doan Company Limited,"Khu Dân Cư Nam Cầu Cẩm Lệ, Xã Hòa Phước, Lô A212-214, Huyện Hòa Vang, Hoà Ninh, Hòa Vang, Đà Nẵng, Vietnam",16.0585633,108.024301,,"['real_estate_agency', 'point_of_interest', 'establishment']",,
ChIJmc2E5pT1QTERobpunKSGL0g,"Le Thao My A Member Co.,Ltd","Thôn Cẩm Nam, Xã Hòa Châu, Huyện Hòa Vang, 326H+242, Hoà Ninh, Hòa Vang, Đà Nẵng, Vietnam",16.0600003,108.0277748,,"['real_estate_agency', 'point_of_interest', 'establishment']",,
ChIJZ6Xr8c_1QTER9cnBXL0Z1SA,Công Ty TNHH Một Thành Viên Hạc Giấy Xanh,"22X6+PPF, Thôn Hòa Trung, Hòa Vang, Đà Nẵng, Vietnam",16.0493191,108.0117846,,"['point_of_interest', 'establishment']",,
ChIJ97WbU5j1QTERn9nLptP-mVA,Điền Trang Herbal,"22X6+9WQ, Hòa Ninh, Hòa Vang, Da Nang, Vietnam",16.0484691,108.0123746,,"['park', 'point_of_interest', 'establishment']",,
ChIJH4EWXqT1QTERwIw9B5mf1Y0,Nước mía Bảo Nguyên,"22X6+8X8, Hòa Ninh, Hòa Vang, Da Nang, Vietnam",16.0482758,108.0124469,"['Monday: Open 24 hours', 'Tuesday: Open 24 hours', 'Wednesday: Open 24 hours', 'Thursday: Open 24 hours', 'Friday: Open 24 hours', 'Saturday: Open 24 hours', 'Sunday: Open 24 hours']","['bakery', 'food', 'point_of_interest', 'store', 'establishment']",,
ChIJAd3ZmF_1QTERqs1bLs_tjvE,Tịnh Thất Ngọc Pháp,"22X6+8X8, Hòa Ninh, Hòa Vang, Da Nang, Vietnam",16.0482758,108.0124469,,"['place_of_worship', 'point_of_interest', 'establishment']",,
ChIJOefuBQH1QTERzsQ3vvE1BjQ,Tạp hoá chị đen,"22X6+8X8, Hòa Ninh, Hòa Vang, Da Nang, Vietnam",16.0482758,108.0124469,,"['grocery_or_supermarket', 'food', 'point_of_interest', 'store', 'establishment']",,
ChIJY7f9BUv1QTERDNMBXWKroGs,Rio farm,"Thôn an sơn, Hòa Vang, Đà Nẵng, Vietnam",16.0482758,108.0124469,,"['rv_park', 'lodging', 'point_of_interest', 'establishment']",,
ChIJu2pcsMH1QTERtCHTOiybTNA,Coffee Giáng Xưa,"22X6+8X8, Tổ 3, Thôn Đông Sơn, Hòa Vang, Đà Nẵng, Vietnam",16.0482758,108.0124469,"['Monday: Open 24 hours', 'Tuesday: Open 24 hours', 'Wednesday: Open 24 hours', 'Thursday: Open 24 hours', 'Friday: Open 24 hours', 'Saturday: Open 24 hours', 'Sunday: Open 24 hours']","['cafe', 'store', 'food', 'point_of_interest', 'establishment']",,
ChIJS38GT1PHNTER9kR6Vah2wJ4,Sv88,"22X6+8X8, Hòa Ninh, Hòa Vang, Da Nang, Vietnam",16.0482758,108.0124469,"['Monday: 7:00\u202fAM\u2009–\u20098:30\u202fPM', 'Tuesday: 7:00\u202fAM\u2009–\u20098:30\u202fPM', 'Wednesday: 7:00\u202fAM\u2009–\u20098:30\u202fPM', 'Thursday: 7:00\u202fAM\u2009–\u20098:30\u202fPM', 'Friday: 7:00\u202fAM\u2009–\u20098:30\u202fPM', 'Saturday: 7:00\u202fAM\u2009–\u20098:30\u202fPM', 'Sunday: 7:00\u202fAM\u2009–\u20098:30\u202fPM']","['point_of_interest', 'establishment']",,
ChIJJ6QZHzL1QTERNfMMCSgkBBE,Biệt thự Long Phụng,"Hòa Ninh, Hòa Vang, Da Nang 50000, Vietnam",16.0482758,108.0124469,,"['travel_agency', 'point_of_interest', 'establishment']",5,1
ChIJuVxbncoXQjERzdQneND9ArU,Gốm Ngon farm,"thôn 1, Hòa Vang, Đà Nẵng, Vietnam",16.0482758,108.0124469,"['Monday: Closed', 'Tuesday: Closed', 'Wednesday: Closed', 'Thursday: Closed', 'Friday: 8:30\u202fAM\u2009–\u20096:30\u202fPM', 'Saturday: 8:30\u202fAM\u2009–\u20096:30\u202fPM', 'Sunday: 8:30\u202fAM\u2009–\u20096:30\u202fPM']","['point_of_interest', 'establishment']",5,2
ChIJGb6sXKr0QTER2S5bGvGTt1o,Hòa Bắc,"Hòa Bắc, Hòa Vang, Đà Nẵng, Vietnam",16.1179841,107.9827977,,"['sublocality_level_1', 'sublocality', 'political']",,
ChIJ075FHhf1QTERN0mgMqxmp0s,Tân tiến,"Tổ 3 thôn trung nghĩa, huyện, Hoà Ninh, Hòa Vang, Đà Nẵng, Vietnam",16.0482758,108.0124469,"['Monday: Open 24 hours', 'Tuesday: Closed', 'Wednesday: Closed', 'Thursday: Closed', 'Friday: Closed', 'Saturday: Closed', 'Sunday: Closed']","['point_of_interest', 'establishment']",,
ChIJ68XcF_n1QTER5F7QV_Q5Njo,cf cu lỳ,"22X6+8X8, Hòa Ninh, Hòa Vang, Da Nang, Vietnam",16.0482758,108.0124469,,"['cafe', 'store', 'point_of_interest', 'food', 'establishment']",,
ChIJj7feL-D1QTERc3ira3tsDRw,Lương Thế Minh,"Tổ 6 Thôn Sơn Phước, Hoà Ninh, Hòa Vang, Đà Nẵng, Vietnam",16.0482758,108.0124469,"['Monday: 9:00\u202fAM\u2009–\u20095:00\u202fPM', 'Tuesday: 9:00\u202fAM\u2009–\u20095:00\u202fPM', 'Wednesday: 9:00\u202fAM\u2009–\u20095:00\u202fPM', 'Thursday: 9:00\u202fAM\u2009–\u20095:00\u202fPM', 'Friday: 9:00\u202fAM\u2009–\u20095:00\u202fPM', 'Saturday: 9:00\u202fAM\u2009–\u20095:00\u202fPM', 'Sunday: 9:00\u202fAM\u2009–\u20095:00\u202fPM']","['car_rental', 'point_of_interest', 'establishment']",,
ChIJnQnkzs31QTERsham-5Fxi_Y,VNWow,"An Sơn, Hòa Vang, Đà Nẵng 50000, Vietnam",16.0482758,108.0124469,"['Monday: 8:00\u202fAM\u2009–\u20095:00\u202fPM', 'Tuesday: 8:00\u202fAM\u2009–\u20095:00\u202fPM', 'Wednesday: 8:00\u202fAM\u2009–\u20095:00\u202fPM', 'Thursday: 8:00\u202fAM\u2009–\u20095:00\u202fPM', 'Friday: 8:00\u202fAM\u2009–\u20095:00\u202fPM', 'Saturday: 8:00\u202fAM\u2009–\u20095:00\u202fPM', 'Sunday: 8:00\u202fAM\u2009–\u20095:00\u202fPM']","['store', 'point_of_interest', 'establishment']",,
ChIJQxnEpHL1QTERv8OiCDEUXmE,Trang trại dược liệu sạch Mẹ Ken,"thôn Trung Nghĩa, Hòa Vang, Đà Nẵng, Vietnam",16.0482758,108.0124469,,"['point_of_interest', 'establishment']",,
ChIJkYggpWr1QTERg-JOHFDHBXQ,Cầu An Lợi,"22X6+8X8, Hòa Ninh, Hòa Vang, Da Nang, Vietnam",16.0482758,108.0124469,,"['school', 'point_of_interest', 'establishment']",,
ChIJafR49wL1QTERRGM5Xphapik,Sun World BA NA HILLS,"22X6+8X8, Commune, An Son Village, Hòa Vang, Đà Nẵng, Vietnam",16.0482758,108.0124469,,"['point_of_interest', 'establishment']",5,1
ChIJQ5dkTOMeQjERTs1avIZL-pI,Trại thỏ Quốc Cường,"22X6+8X8, Hòa Ninh, Hòa Vang, Da Nang, Vietnam",16.0482758,108.0124469,"['Monday: 6:00\u202fAM\u2009–\u20098:00\u202fPM', 'Tuesday: 6:00\u202fAM\u2009–\u20098:00\u202fPM', 'Wednesday: 6:00\u202fAM\u2009–\u20098:00\u202fPM', 'Thursday: 6:00\u202fAM\u2009–\u20098:00\u202fPM', 'Friday: 6:00\u202fAM\u2009–\u20098:00\u202fPM', 'Saturday: 6:00\u202fAM\u2009–\u20098:00\u202fPM', 'Sunday: 6:00\u202fAM\u2009–\u20098:00\u202fPM']","['pet_store', 'store', 'point_of_interest', 'establishment']",3.5,2
ChIJgfHwGJn3QTERsCByPksgYUY,Lotteria Bà Nà Hills,"Làng Pháp-Bà Nà Hill, Thôn An Sơn, Hòa Vang, Đà Nẵng, Vietnam",16.048441,108.0121037,"['Monday: 8:30\u202fAM\u2009–\u20094:00\u202fPM', 'Tuesday: 8:30\u202fAM\u2009–\u20094:00\u202fPM', 'Wednesday: 8:30\u202fAM\u2009–\u20094:00\u202fPM', 'Thursday: 8:30\u202fAM\u2009–\u20094:00\u202fPM', 'Friday: 8:30\u202fAM\u2009–\u20094:00\u202fPM', 'Saturday: 8:30\u202fAM\u2009–\u20094:00\u202fPM', 'Sunday: 8:30\u202fAM\u2009–\u20094:00\u202fPM']","['restaurant', 'food', 'point_of_interest', 'establishment']",2.7,12
ChIJI0RRe6b1QTERi3ApQz7jCXM,Chốn An Viên,"Unnamed Road, 324J+JWM, Hoà Ninh, Hòa Vang, Đà Nẵng, Vietnam",16.0565959,108.032311,"['Monday: 8:00\u202fAM\u2009–\u20095:00\u202fPM', 'Tuesday: 8:00\u202fAM\u2009–\u20095:00\u202fPM', 'Wednesday: 8:00\u202fAM\u2009–\u20095:00\u202fPM', 'Thursday: 8:00\u202fAM\u2009–\u20095:00\u202fPM', 'Friday: 8:00\u202fAM\u2009–\u20095:00\u202fPM', 'Saturday: 8:00\u202fAM\u2009–\u20095:00\u202fPM', 'Sunday: 8:00\u202fAM\u2009–\u20095:00\u202fPM']","['place_of_worship', 'point_of_interest', 'establishment']",4.8,5
ChIJH6q3g_n1QTER5oZX3wpZ3-0,Jardin du Soleil - Vườn mặt trời,"Unnamed Road, 322M+RHC, Hoà Ninh, Hòa Vang, Đà Nẵng, Vietnam",16.0520623,108.0338917,,"['campground', 'park', 'lodging', 'point_of_interest', 'establishment']",5,1
ChIJla9Qmm31QTEREtd_wbGZx5I,Khu Vườn Bí Mật,"thôn 1, Hòa Vang, Đà Nẵng 550000, Vietnam",16.05801,108.0383034,,"['point_of_interest', 'food', 'establishment']",5,5
ChIJpRaMap_1QTERHJ0c9Tjjwn4,An Nhiên Farm Đà Nẵng,"thôn 1, Hòa Vang, Đà Nẵng 590000, Vietnam",16.0568161,108.0385969,"['Monday: 3:00\u202fPM\u2009–\u20099:00\u202fAM', 'Tuesday: 3:00\u202fPM\u2009–\u20099:00\u202fAM', 'Wednesday: 3:00\u202fPM\u2009–\u20099:00\u202fAM', 'Thursday: 3:00\u202fPM\u2009–\u20099:00\u202fAM', 'Friday: 3:00\u202fPM\u2009–\u20099:00\u202fAM', 'Saturday: 3:00\u202fPM\u2009–\u20099:00\u202fAM', 'Sunday: 3:00\u202fPM\u2009–\u20099:00\u202fAM']","['point_of_interest', 'establishment']",4.8,136
ChIJyUJkBaT1QTER1onn1L33eNw,Trang trại thiều mậu,"Unnamed Road, 325Q+7PX, Hoà Ninh, Hòa Vang, Đà Nẵng, Vietnam",16.058231,108.039373,,"['park', 'point_of_interest', 'establishment']",,
ChIJPTCi8p71QTEREx92YtOfMAQ,KHU VƯỜN BÊN TRONG,"Unnamed Road, Hoà Ninh, Hòa Vang, Đà Nẵng, Vietnam",16.0617687,108.0404032,,"['park', 'point_of_interest', 'establishment']",,
ChIJXeu-ecX1QTERUMNJW2h_jXw,Thảo Nguyên Xanh Farm,"Thôn 1, Hòa Vang, Đà Nẵng 550000, Vietnam",16.056394,108.042292,"['Monday: Open 24 hours', 'Tuesday: Open 24 hours', 'Wednesday: Open 24 hours', 'Thursday: Open 24 hours', 'Friday: Open 24 hours', 'Saturday: Open 24 hours', 'Sunday: Open 24 hours']","['campground', 'lodging', 'park', 'point_of_interest', 'establishment']",,
ChIJfzTBGkX1QTERYTOEwHgdbZ4,Tạ Gia Trang,"323V+62H, Hòa Ninh, Hòa Vang, Da Nang, Vietnam",16.0530722,108.0425994,,"['point_of_interest', 'establishment']",3.7,3
ChIJy2yvSG_1QTERbvF3lilTjfk,Mr. THUYẾT GARDEN,"Unnamed Road, 325V+53P, Hoà Ninh, Hòa Vang, Đà Nẵng, Vietnam",16.0579656,108.0427003,"['Monday: 9:00\u202fAM\u2009–\u20095:00\u202fPM', 'Tuesday: 9:00\u202fAM\u2009–\u20095:00\u202fPM', 'Wednesday: 9:00\u202fAM\u2009–\u20095:00\u202fPM', 'Thursday: 9:00\u202fAM\u2009–\u20095:00\u202fPM', 'Friday: 9:00\u202fAM\u2009–\u20095:00\u202fPM', 'Saturday: 9:00\u202fAM\u2009–\u20095:00\u202fPM', 'Sunday: Closed']","['point_of_interest', 'establishment']",5,1
ChIJfbqUtOv1QTER7NLDlMol9zw,Gikasun Garden 1,"Hòa Ninh, Hòa Vang, Da Nang, Vietnam",16.0580224,108.0441535,"['Monday: 7:00\u202fAM\u2009–\u200910:00\u202fPM', 'Tuesday: 7:00\u202fAM\u2009–\u200910:00\u202fPM', 'Wednesday: 7:00\u202fAM\u2009–\u200910:00\u202fPM', 'Thursday: 7:00\u202fAM\u2009–\u200910:00\u202fPM', 'Friday: 7:00\u202fAM\u2009–\u200910:00\u202fPM', 'Saturday: 7:00\u202fAM\u2009–\u200910:00\u202fPM', 'Sunday: 8:00\u202fAM\u2009–\u20099:30\u202fPM']","['park', 'point_of_interest', 'establishment']",5,1
ChIJXT4Z4uz1QTERdw-nKOeWiFc,Trang trại Ếch Hoà Ninh,"325V+4Q5, Unnamed, Road, Hòa Vang, Đà Nẵng, Vietnam",16.0577516,108.0444846,,"['point_of_interest', 'establishment']",4.4,7
ChIJCTMBH4v1QTERYEqeFQRuFEw,Tạp Hóa Huy Thiệc,"Hòa Ninh, Hòa Vang, Da Nang, Vietnam",16.0583544,108.0448461,,"['point_of_interest', 'establishment']",,
ChIJLcw0ga_1QTERgvh6KCmmGs0,nhà Gỗ,"Unnamed, Road, Hòa Vang, Đà Nẵng, Vietnam",16.06261,108.044518,,"['park', 'point_of_interest', 'establishment']",5,2
ChIJM9_pcvP1QTERM21LHEsJqNk,Lan rừng Hoà Trung,"Unnamed Road, 326W+P4X, Hoà Ninh, Hòa Vang, Đà Nẵng, Vietnam",16.0618616,108.0453504,,"['point_of_interest', 'establishment']",,
ChIJ66u6LPn1QTERJXEgCVcahJM,Quán Thắng Thỏ,"Unnamed Road, 325W+7FF, Hoà Ninh, Hòa Vang, Đà Nẵng, Vietnam",16.0581825,108.0461765,"['Monday: 9:00\u202fAM\u2009–\u20095:00\u202fPM', 'Tuesday: 9:00\u202fAM\u2009–\u20095:00\u202fPM', 'Wednesday: 9:00\u202fAM\u2009–\u20095:00\u202fPM', 'Thursday: 9:00\u202fAM\u2009–\u20095:00\u202fPM', 'Friday: 9:00\u202fAM\u2009–\u20095:00\u202fPM', 'Saturday: 9:00\u202fAM\u2009–\u20095:00\u202fPM', 'Sunday: 9:00\u202fAM\u2009–\u20095:00\u202fPM']","['restaurant', 'point_of_interest', 'food', 'establishment']",5,4
ChIJb5SWMKn1QTERu44tSiAjzSI,Cây cảnh Thanh Bình,"326W+F8C, Hòa Ninh, Hòa Vang, Da Nang, Vietnam",16.0611926,108.0457679,,"['general_contractor', 'point_of_interest', 'establishment']",,
ChIJM0tprUP1QTERbqXHZ4Hn_a8,Vườn lan rừng tứ gia,"Unnamed Road, 326W+6M6, Hoà Ninh, Hòa Vang, Đà Nẵng, Vietnam",16.060537,108.046655,,"['night_club', 'point_of_interest', 'establishment']",5,1
ChIJXfecQ0T1QTER_1J6IknWrmM,Tạp Hoá Cô Oanh,"Unnamed Road, 325W+VQQ, Hoà Ninh, Hòa Vang, Đà Nẵng, Vietnam",16.0597191,108.0469993,"['Monday: Open 24 hours', 'Tuesday: Open 24 hours', 'Wednesday: Open 24 hours', 'Thursday: Open 24 hours', 'Friday: Open 24 hours', 'Saturday: Open 24 hours', 'Sunday: Open 24 hours']","['store', 'point_of_interest', 'establishment']",3,1
ChIJu6Am1Ur1QTERzwi58Y0qs-g,Giao Xư Hoa Trung,"Unnamed Road, 325W+VVG, Hoà Ninh, Hòa Vang, Đà Nẵng, Vietnam",16.0596978,108.0471887,,"['museum', 'point_of_interest', 'establishment']",,
ChIJj7ice4r1QTERXfxVmdrDnWw,Nhà Thờ Mông Triệu,"325W+WX9, Hòa Ninh, Hòa Vang, Da Nang, Vietnam",16.0597868,108.0474724,,"['church', 'place_of_worship', 'point_of_interest', 'establishment']",4.3,8
ChIJWfENcCv1QTERfSqdFrMTDaw,máy xay xát hoa cường,"325W+WX9, Hòa Ninh, Hòa Vang, Da Nang, Vietnam",16.0589736,108.0476389,,"['general_contractor', 'point_of_interest', 'establishment']",5,2
ChIJhy0K0y8fQjERCTn8Iwf-nt4,BĐS CƯỜNG LAND,"323X+JQC, Hòa Ninh, Hòa Vang, Da Nang, Vietnam",16.053736,108.0480509,,"['real_estate_agency', 'point_of_interest', 'establishment']",5,1
ChIJqaD7k-EfQjERMobf_Kb8uiw,Honda Tân Tiến,"Unnamed Road, 323X+C7X, Hoà Ninh, Hòa Vang, Đà Nẵng, Vietnam",16.053617,108.048249,"['Monday: Open 24 hours', 'Tuesday: Open 24 hours', 'Wednesday: Open 24 hours', 'Thursday: Open 24 hours', 'Friday: Open 24 hours', 'Saturday: Open 24 hours', 'Sunday: Open 24 hours']","['point_of_interest', 'car_repair', 'establishment']",4.5,4
ChIJz270tG31QTERVh2ULVUEGFg,Quang Trung's Garden,"326X+C2F, Hòa Ninh, Hòa Vang, Da Nang, Vietnam",16.06105,108.0475127,"['Monday: 9:00\u202fAM\u2009–\u20095:00\u202fPM', 'Tuesday: 9:00\u202fAM\u2009–\u20095:00\u202fPM', 'Wednesday: 9:00\u202fAM\u2009–\u20095:00\u202fPM', 'Thursday: Open 24 hours', 'Friday: Open 24 hours', 'Saturday: Open 24 hours', 'Sunday: 9:00\u202fAM\u2009–\u20095:00\u202fPM']","['point_of_interest', 'establishment']",,
ChIJowR8JD4fQjERkjXFhoyJg2w,Nhà Trung nè,"Unnamed Road, 326X+C2F, Hoà Ninh, Hòa Vang, Đà Nẵng, Vietnam",16.061053,108.0475339,,"['point_of_interest', 'establishment']",,
ChIJIZ1yUXcfQjERpDQSl_mCQPg,Nhà văn hoá thôn Trung Nghĩa,"323X+JQC, Hòa Ninh, Hòa Vang, Da Nang, Vietnam",16.0532523,108.048328,,"['point_of_interest', 'establishment']",,
ChIJC9ulCgX1QTERN5VKLlgr_-Y,Nhà thờ tộc Lê,"327W+2V8, Hòa Ninh, Hòa Vang, Da Nang, Vietnam",16.0625476,108.0471897,,"['point_of_interest', 'establishment']",,
ChIJv60MxA71QTERNy2-ezF43fI,Tạp Hoá Hà Lợi,"Unnamed Road, 326X+64C, Hoà Ninh, Hòa Vang, Đà Nẵng, Vietnam",16.060562,108.047762,,"['convenience_store', 'store', 'food', 'point_of_interest', 'establishment']",,
ChIJM6vivc0fQjERvkDTsCAvpN4,Tạp hoá Thắng Cúc,"Unnamed Road, 326X+V7H, Hoà Ninh, Hòa Vang, Đà Nẵng, Vietnam",16.0621934,108.0482494,,"['supermarket', 'grocery_or_supermarket', 'food', 'store', 'point_of_interest', 'establishment']",,
ChIJA35akC0fQjERa7Ye7fk0U1E,Vườn nhà Camping,"323X+JQC, Unnamed Road, Hoà Ninh, Hòa Vang, Đà Nẵng, Vietnam",16.0540659,108.0493914,,"['park', 'point_of_interest', 'establishment']",5,1
ChIJ25GQYbUfQjERRiOlLYsSK4w,Ct thi cong,"Unnamed Road, 323X+JQC, Hoà Ninh, Hòa Vang, Đà Nẵng, Vietnam",16.0540659,108.0493914,,"['restaurant', 'food', 'point_of_interest', 'establishment']",,
ChIJC33YXO71QTERG32sPxVoVqE,Hòa Ninh,"Hòa Ninh, Hòa Vang, Đà Nẵng, Vietnam",16.0482758,108.0124469,,"['sublocality_level_1', 'sublocality', 'political']",,
ChIJS2M1rb7xQTER_InDWUORnsM,Trạm KL Cà Nhông,"2VWV+GHW, Hòa Bắc, Đông Giang, Quảng Nam, Vietnam",16.0463744,107.8939467,,"['point_of_interest', 'establishment']",,
ChIJ625dHWHxQTERp6x81m0_w48,Tạp hoá Thái Phong,"2W86+VQV, Ba, Đông Giang, Quảng Nam, Vietnam",16.0172415,107.9119307,,"['store', 'point_of_interest', 'establishment']",,
ChIJ41lDEhTzQTERG9yz0wC3VV4,Thác Mây Treo,"3WVV+483, Hòa Bắc, Hòa Vang, Da Nang, Vietnam",16.0927629,107.9433031,"['Monday: Open 24 hours', 'Tuesday: Open 24 hours', 'Wednesday: Open 24 hours', 'Thursday: Open 24 hours', 'Friday: Open 24 hours', 'Saturday: Open 24 hours', 'Sunday: Open 24 hours']","['park', 'point_of_interest', 'establishment']",4.8,13
ChIJu5t38NvxQTERLuoqmRabzxA,Trại heo Đông Giang-Sw,"Ba, Ba, Đông Giang, Quảng Nam, Vietnam",16.0162739,107.9022121,,"['point_of_interest', 'establishment']",,
ChIJGb6sXKr0QTER2S5bGvGTt1o,Hòa Bắc,"Hòa Bắc, Hòa Vang, Đà Nẵng, Vietnam",16.1179841,107.9827977,,"['sublocality_level_1', 'sublocality', 'political']",,
ChIJGb6sXKr0QTER2S5bGvGTt1o,Hòa Bắc,"Hòa Bắc, Hòa Vang, Đà Nẵng, Vietnam",16.1179841,107.9827977,,"['sublocality_level_1', 'sublocality', 'political']",,
ChIJY0ie9AbxQTERuS-tsJmpb1o,xã Tư,"xã Tư, Đông Giang, Quảng Nam, Vietnam",16.0132121,107.893932,,"['sublocality_level_1', 'sublocality', 'political']",,
ChIJBUGlQb4ZQjERT8HjiqufUcc,Hòa Cường catholic church,"150 Nguyễn Hữu Thọ, Hòa Thuận Nam, Hải Châu, Đà Nẵng 550000, Vietnam",16.0440841,108.2097487,"['Monday: 5:00\u202fAM\u2009–\u20099:30\u202fPM', 'Tuesday: 5:00\u202fAM\u2009–\u200910:00\u202fPM', 'Wednesday: 5:00\u202fAM\u2009–\u20099:30\u202fPM', 'Thursday: 5:00\u202fAM\u2009–\u200910:00\u202fPM', 'Friday: 5:00\u202fAM\u2009–\u20099:30\u202fPM', 'Saturday: 5:00\u202fAM\u2009–\u200910:00\u202fPM', 'Sunday: 5:00\u202fAM\u2009–\u20099:30\u202fPM']","['tourist_attraction', 'church', 'place_of_worship', 'point_of_interest', 'establishment']",4.7,206
ChIJH5FAHiEYQjERi-kdX4gd-eE,Da Nang Food Tour,"4 Trần Quốc Toản, Hải Châu 1, Hải Châu, Đà Nẵng 550000, Vietnam",16.0661013,108.2243619,"['Monday: 8:00\u202fAM\u2009–\u20099:00\u202fPM', 'Tuesday: 8:00\u202fAM\u2009–\u20099:00\u202fPM', 'Wednesday: 8:00\u202fAM\u2009–\u20099:00\u202fPM', 'Thursday: 8:00\u202fAM\u2009–\u20099:00\u202fPM', 'Friday: 8:00\u202fAM\u2009–\u20099:00\u202fPM', 'Saturday: 8:00\u202fAM\u2009–\u20099:00\u202fPM', 'Sunday: 8:00\u202fAM\u2009–\u20099:00\u202fPM']","['tourist_attraction', 'point_of_interest', 'establishment']",4.3,55
ChIJmySGLj4YQjERP-VGWyH42ks,Zone Media,"Tầng 3 tòa nhà Indochina Riverside, 74 Bạch Đằng, Hải Châu, Hải Châu 1, Đà Nẵng, 550000, Vietnam",16.0696342,108.2249089,"['Monday: 7:00\u202fAM\u2009–\u20096:00\u202fPM', 'Tuesday: 7:00\u202fAM\u2009–\u20096:00\u202fPM', 'Wednesday: 7:00\u202fAM\u2009–\u20096:00\u202fPM', 'Thursday: 7:00\u202fAM\u2009–\u20096:00\u202fPM', 'Friday: 7:00\u202fAM\u2009–\u20096:00\u202fPM', 'Saturday: 7:00\u202fAM\u2009–\u20096:00\u202fPM', 'Sunday: Closed']","['tourist_attraction', 'lodging', 'point_of_interest', 'establishment']",4,4
ChIJ4TzoziwYQjER8Wp_tOG1pYA,DHC Marina,"367H+PW4, Đ. Trần Hưng Đạo, An Hải Trung, Sơn Trà, Đà Nẵng 550000, Vietnam",16.0642548,108.2298186,"['Monday: Open 24 hours', 'Tuesday: Open 24 hours', 'Wednesday: Open 24 hours', 'Thursday: Open 24 hours', 'Friday: Open 24 hours', 'Saturday: Open 24 hours', 'Sunday: Open 24 hours']","['tourist_attraction', 'point_of_interest', 'establishment']",4.1,172
ChIJLWoAs80ZQjERLKHDYD-ZymI,Da Nang Museum of Cham Sculpture,"Số 02 Đ. 2 Tháng 9, Bình Hiên, Hải Châu, Đà Nẵng 550000, Vietnam",16.0603007,108.2232677,"['Monday: 7:30\u202fAM\u2009–\u20095:00\u202fPM', 'Tuesday: 7:30\u202fAM\u2009–\u20095:00\u202fPM', 'Wednesday: 7:30\u202fAM\u2009–\u20095:00\u202fPM', 'Thursday: 7:30\u202fAM\u2009–\u20095:00\u202fPM', 'Friday: 7:30\u202fAM\u2009–\u20095:00\u202fPM', 'Saturday: 7:30\u202fAM\u2009–\u20095:00\u202fPM', 'Sunday: 7:30\u202fAM\u2009–\u20095:00\u202fPM']","['tourist_attraction', 'general_contractor', 'museum', 'point_of_interest', 'establishment']",4.1,5260
ChIJF8yRoecZQjERdDBeBdSRD-Y,Asia Park - Sun World Da Nang Wonders,"1 Phan Đăng Lưu, Hoà Cường Bắc, Hải Châu, Đà Nẵng, Vietnam",16.0383924,108.2266751,"['Monday: 3:00\u2009–\u200910:00\u202fPM', 'Tuesday: 3:00\u2009–\u200910:00\u202fPM', 'Wednesday: 3:00\u2009–\u200910:00\u202fPM', 'Thursday: 3:00\u2009–\u200910:00\u202fPM', 'Friday: 3:00\u2009–\u200910:00\u202fPM', 'Saturday: 3:00\u2009–\u200910:00\u202fPM', 'Sunday: 3:00\u2009–\u200910:00\u202fPM']","['tourist_attraction', 'amusement_park', 'park', 'point_of_interest', 'establishment']",4.4,8518
ChIJ9fqsdOcZQjERZcIMEHw3HtY,Sun Wheel,"1 Phan Đăng Lưu, Hoà Cường Bắc, Hải Châu, Đà Nẵng, Vietnam",16.0404534,108.2283843,"['Monday: 3:00\u2009–\u20099:00\u202fPM', 'Tuesday: 3:00\u2009–\u20099:00\u202fPM', 'Wednesday: 3:00\u2009–\u20099:00\u202fPM', 'Thursday: 3:00\u2009–\u20099:00\u202fPM', 'Friday: 3:00\u2009–\u200910:00\u202fPM', 'Saturday: 3:00\u2009–\u200910:00\u202fPM', 'Sunday: 3:00\u2009–\u200910:00\u202fPM']","['tourist_attraction', 'point_of_interest', 'establishment']",4.5,4135
ChIJgyd5qSwYQjERWjrZwzhyXKc,Chùa An Phước,"Mai Hắc Đế, An Hải Trung, Sơn Trà, Đà Nẵng 550000, Vietnam",16.0634876,108.231513,,"['tourist_attraction', 'place_of_worship', 'point_of_interest', 'establishment']",4.6,27
ChIJo8fznMYZQjERNtNTUT-ZJyk,Ho Chi Minh Museum,"26X9+F2G, Duy Tân, Hoà Cường Bắc, Hải Châu, Đà Nẵng 550000, Vietnam",16.0486814,108.217581,"['Monday: 7:30\u202fAM\u2009–\u20094:30\u202fPM', 'Tuesday: 7:30\u202fAM\u2009–\u20094:30\u202fPM', 'Wednesday: 7:30\u202fAM\u2009–\u20094:30\u202fPM', 'Thursday: 7:30\u202fAM\u2009–\u20094:30\u202fPM', 'Friday: 7:30\u202fAM\u2009–\u20094:30\u202fPM', 'Saturday: 7:30\u202fAM\u2009–\u20094:30\u202fPM', 'Sunday: 7:30\u202fAM\u2009–\u20094:30\u202fPM']","['tourist_attraction', 'museum', 'point_of_interest', 'establishment']",4.2,927
ChIJkzSVjMoZQjERwedbE3VmKt4,Chùa Pháp Lâm,"574 Ông Ích Khiêm, Nam Dương, Hải Châu, Đà Nẵng 550000, Vietnam",16.0622908,108.2155449,"['Monday: Open 24 hours', 'Tuesday: Open 24 hours', 'Wednesday: Open 24 hours', 'Thursday: Open 24 hours', 'Friday: Open 24 hours', 'Saturday: Open 24 hours', 'Sunday: Open 24 hours']","['tourist_attraction', 'place_of_worship', 'point_of_interest', 'establishment']",4.5,389
ChIJS0W_PlEZQjERNocT1rjxDB4,Bạch đằng,"64 Thi Sách, Hòa Thuận Nam, Hải Châu, Đà Nẵng 550000, Vietnam",16.0540721,108.2054827,,"['tourist_attraction', 'point_of_interest', 'establishment']",,
ChIJR0Q0teUZQjERKEBd7ptNNZM,Grab Car,"3643+H97, Nguyễn Văn Linh, Hòa Thuận Tây, Hải Châu, Đà Nẵng 550000, Vietnam",16.0562399,108.2031234,,"['tourist_attraction', 'point_of_interest', 'establishment']",2.5,2
ChIJD29VgVEZQjERw7uqpISQl7w,Vintage Window,"K280 Hoàng Diệu, Bình Hiên, Hải Châu, Đà Nẵng 550000, Vietnam",16.0588292,108.216885,,"['tourist_attraction', 'point_of_interest', 'establishment']",,
ChIJRZhHIMkZQjERYBH-5S1xKNg,Pho Da Temple,"340 Phan Châu Trinh, Bình Thuận, Hải Châu, Đà Nẵng 550000, Vietnam",16.0559509,108.2186556,,"['tourist_attraction', 'place_of_worship', 'point_of_interest', 'establishment']",4.5,122
ChIJxR2USegZQjERSUEqi77jEB8,Công Ty TNHH Tư Vấn Và Dịch Thuật Miền Trung 247,"K130A/18 Điện Biên Phủ, Chính Gián, Thanh Khê, Đà Nẵng 550000, Vietnam",16.0658429,108.1986696,"['Monday: 5:00\u202fAM\u2009–\u200910:00\u202fPM', 'Tuesday: 5:00\u202fAM\u2009–\u200910:00\u202fPM', 'Wednesday: 5:00\u202fAM\u2009–\u200910:00\u202fPM', 'Thursday: 5:00\u202fAM\u2009–\u200910:00\u202fPM', 'Friday: 5:00\u202fAM\u2009–\u200910:00\u202fPM', 'Saturday: 5:00\u202fAM\u2009–\u200910:00\u202fPM', 'Sunday: 5:00\u202fAM\u2009–\u200910:00\u202fPM']","['tourist_attraction', 'health', 'travel_agency', 'point_of_interest', 'establishment']",5,62
ChIJkatEeMwZQjERnAUKgmrbNgQ,Da Nang Fresco Village,"Kiệt 75 Nguyễn Văn Linh, Phước Ninh, Hải Châu, Đà Nẵng 550000, Vietnam",16.0607217,108.2200138,"['Monday: Open 24 hours', 'Tuesday: Open 24 hours', 'Wednesday: Open 24 hours', 'Thursday: Open 24 hours', 'Friday: Open 24 hours', 'Saturday: Open 24 hours', 'Sunday: Open 24 hours']","['tourist_attraction', 'point_of_interest', 'establishment']",4.1,580
ChIJs4CsYc0ZQjERfosaA8zDOEE,danang,"26W9+VXP, Hòa Cường, Hải Châu District, Da Nang 550000, Vietnam",16.0472002,108.2199588,,"['tourist_attraction', 'point_of_interest', 'establishment']",,
ChIJu6FQjzUYQjER39TMpgQVRUs,Con Market,"290 Hùng Vương, Vĩnh Trung, Hải Châu, Đà Nẵng 550000, Vietnam",16.0680564,108.2143082,"['Monday: 7:00\u202fAM\u2009–\u20097:00\u202fPM', 'Tuesday: 7:00\u202fAM\u2009–\u20097:00\u202fPM', 'Wednesday: 7:00\u202fAM\u2009–\u20097:00\u202fPM', 'Thursday: 7:00\u202fAM\u2009–\u20097:00\u202fPM', 'Friday: 7:00\u202fAM\u2009–\u20097:00\u202fPM', 'Saturday: 7:00\u202fAM\u2009–\u20097:00\u202fPM', 'Sunday: 7:00\u202fAM\u2009–\u20097:00\u202fPM']","['tourist_attraction', 'point_of_interest', 'establishment']",4.2,13289
ChIJyd6isx8ZQjERFA4utV9C37c,Shop pet,"Tân Chính, Thanh Khê, Đà Nẵng 550000, Vietnam",16.069943,108.210321,"['Monday: 8:30\u202fAM\u2009–\u200910:00\u202fPM', 'Tuesday: 8:30\u202fAM\u2009–\u200910:00\u202fPM', 'Wednesday: 8:30\u202fAM\u2009–\u200910:00\u202fPM', 'Thursday: 8:30\u202fAM\u2009–\u200910:00\u202fPM', 'Friday: 8:30\u202fAM\u2009–\u200910:00\u202fPM', 'Saturday: 8:30\u202fAM\u2009–\u200910:00\u202fPM', 'Sunday: 8:30\u202fAM\u2009–\u200910:00\u202fPM']","['tourist_attraction', 'point_of_interest', 'establishment']",5,5
ChIJqSrP1AQZQjERe15rgXw9vz0,Đặc Sản Bò Lụi Bé Na - Nem Lụi Bé Na,"267 Ông Ích Khiêm, Hải Châu 2, Hải Châu, Đà Nẵng 550000, Vietnam",16.0688806,108.2139012,"['Monday: Open 24 hours', 'Tuesday: Open 24 hours', 'Wednesday: Open 24 hours', 'Thursday: Open 24 hours', 'Friday: Open 24 hours', 'Saturday: Open 24 hours', 'Sunday: Open 24 hours']","['grocery_or_supermarket', 'tourist_attraction', 'restaurant', 'point_of_interest', 'food', 'store', 'establishment']",5,19
ChIJC-CJfRYZQjER_B1JJTtnK7Y,Bánh Canh Bà Bé Chợ Cồn Đà Nẵng,"QUÁN DUY NHẤT Ở ĐÀ NẴNG - Cổng chợ cồn, 269 Ông Ích Khiêm, Hải Châu 2, Hải Châu, Đà Nẵng 550000, Vietnam",16.0689316,108.2138951,"['Monday: 6:45\u202fPM\u2009–\u200912:00\u202fAM', 'Tuesday: 6:45\u202fPM\u2009–\u200912:00\u202fAM', 'Wednesday: 6:45\u202fPM\u2009–\u200912:00\u202fAM', 'Thursday: 6:45\u202fPM\u2009–\u200912:00\u202fAM', 'Friday: 6:45\u202fPM\u2009–\u200912:00\u202fAM', 'Saturday: 6:45\u202fPM\u2009–\u200912:00\u202fAM', 'Sunday: 6:45\u202fPM\u2009–\u200912:00\u202fAM']","['tourist_attraction', 'point_of_interest', 'establishment']",3.6,18
ChIJASjStc0ZQjERf8hQfCEJ8JA,An Long Temple,"4 Đ. 2 Tháng 9, Bình Hiên, Hải Châu, Đà Nẵng 550000, Vietnam",16.0597945,108.223266,,"['tourist_attraction', 'place_of_worship', 'point_of_interest', 'establishment']",4.5,67
ChIJ0atM70kYQjERt8DDC2MBtX4,다낭현지교회,"190 Ông Ích Khiêm, Tân Chính, Thanh Khê, Đà Nẵng 550000, Vietnam",16.0710393,108.2129536,,"['church', 'tourist_attraction', 'place_of_worship', 'point_of_interest', 'establishment']",4.9,57
ChIJnwKLiE4YQjERMVI0qrqKg1c,Nhà Thờ Giáo Xứ Tam Tòa,"274 Trần Cao Vân, Tam Thuận, Thanh Khê, Đà Nẵng 550000, Vietnam",16.0717158,108.2037948,"['Monday: 5:30\u2009–\u20096:30\u202fPM', 'Tuesday: 5:30\u2009–\u20096:30\u202fPM', 'Wednesday: 5:30\u2009–\u20096:30\u202fPM', 'Thursday: 5:30\u2009–\u20096:30\u202fPM', 'Friday: 5:30\u2009–\u20096:30\u202fPM', 'Saturday: 5:30\u2009–\u20096:30\u202fPM', 'Sunday: 5:00\u2009–\u20096:00\u202fAM, 7:30\u2009–\u20098:30\u202fAM, 5:00\u2009–\u20096:00\u202fPM']","['tourist_attraction', 'church', 'place_of_worship', 'point_of_interest', 'establishment']",4.5,175
ChIJtRKHI78ZQjERoPBC7lu9HEQ,GIÒ BẮP BÊ NGHỆ AN - CN ĐÀ NẴNG,"156 Hùng Vương, Hải Châu 1, Hải Châu, Đà Nẵng 550000, Vietnam",16.0682813,108.2184452,,"['tourist_attraction', 'point_of_interest', 'establishment']",,
ChIJbbs1ZTQYQjERi3OdfmnRk2g,Hai Chau Village Hall,"3699+3MQ, K48 Phan Châu Trinh, Hải Châu 1, Hải Châu, Đà Nẵng 550000, Vietnam",16.0677019,108.2192454,,"['tourist_attraction', 'point_of_interest', 'establishment']",4.4,34
ChIJHTR8VDIYQjERdfEDU-POofU,Đà Nẵng Cathedral,"156 Đ. Trần Phú, Hải Châu 1, Hải Châu, Đà Nẵng 550000, Vietnam",16.0666718,108.2229706,"['Monday: 6:00\u202fAM\u2009–\u20094:30\u202fPM', 'Tuesday: 6:00\u202fAM\u2009–\u20094:30\u202fPM', 'Wednesday: 6:00\u202fAM\u2009–\u20094:30\u202fPM', 'Thursday: 6:00\u202fAM\u2009–\u20094:30\u202fPM', 'Friday: 6:00\u202fAM\u2009–\u20094:30\u202fPM', 'Saturday: 6:00\u202fAM\u2009–\u20094:30\u202fPM', 'Sunday: 11:30\u202fAM\u2009–\u20091:30\u202fPM']","['tourist_attraction', 'church', 'place_of_worship', 'point_of_interest', 'establishment']",3.9,9417
ChIJ6fTZzi4ZQjERB7zNaGQLETs,Mi đi mô,"30, 16/3 Đ. Trần Phú, Hải Châu 1, Hải Châu, Đà Nẵng 55000, Vietnam",16.0662321,108.2232725,,"['tourist_attraction', 'point_of_interest', 'establishment']",,
ChIJ78thjjYYQjERkiy-c9ebVPE,Danang Fine Arts Museum,"78 Đ. Lê Duẩn, Thạch Thang, Hải Châu, Đà Nẵng 550000, Vietnam",16.0712986,108.2177249,"['Monday: 8:00\u202fAM\u2009–\u20095:00\u202fPM', 'Tuesday: 8:00\u202fAM\u2009–\u20095:00\u202fPM', 'Wednesday: 8:00\u202fAM\u2009–\u20095:00\u202fPM', 'Thursday: 8:00\u202fAM\u2009–\u20095:00\u202fPM', 'Friday: 8:00\u202fAM\u2009–\u20095:00\u202fPM', 'Saturday: 8:00\u202fAM\u2009–\u20095:00\u202fPM', 'Sunday: 8:00\u202fAM\u2009–\u20095:00\u202fPM']","['tourist_attraction', 'museum', 'point_of_interest', 'establishment']",4.4,623
ChIJ75pYOI8ZQjEReb8Mw6ThCZQ,Nhà Thờ Con Gà,"156 Đ. Trần Phú, Hải Châu 1, Hải Châu, Đà Nẵng 550000, Vietnam",16.0666864,108.2232191,"['Monday: 7:00\u202fAM\u2009–\u20096:00\u202fPM', 'Tuesday: 7:00\u202fAM\u2009–\u20096:00\u202fPM', 'Wednesday: 7:00\u202fAM\u2009–\u20096:00\u202fPM', 'Thursday: 7:00\u202fAM\u2009–\u20096:00\u202fPM', 'Friday: 7:00\u202fAM\u2009–\u20096:00\u202fPM', 'Saturday: 7:00\u202fAM\u2009–\u20096:00\u202fPM', 'Sunday: 7:00\u202fAM\u2009–\u20096:00\u202fPM']","['tourist_attraction', 'point_of_interest', 'establishment']",4.6,348
ChIJO-CAdzAYQjERcuYVXdwMfkE,Ruralstay Vietnam,"206 Huỳnh Ngọc Huệ, Hòa Khê, Thanh Khê, Đà Nẵng 590000, Vietnam",16.0570672,108.18675,"['Monday: 10:00\u202fAM\u2009–\u20095:00\u202fPM', 'Tuesday: 10:00\u202fAM\u2009–\u20095:00\u202fPM', 'Wednesday: 10:00\u202fAM\u2009–\u20095:00\u202fPM', 'Thursday: 10:00\u202fAM\u2009–\u20095:00\u202fPM', 'Friday: 10:00\u202fAM\u2009–\u20095:00\u202fPM', 'Saturday: Closed', 'Sunday: Closed']","['tourist_attraction', 'travel_agency', 'point_of_interest', 'establishment']",5,2
ChIJq9RJ9jYYQjERv3TZJNtSuHM,Hội Thánh Truyền Giáo Cao Đài-Trung Hưng Bửu Toà,"63 Hải Phòng, Thạch Thang, Hải Châu, Đà Nẵng 550000, Vietnam",16.0719117,108.2170862,,"['tourist_attraction', 'place_of_worship', 'point_of_interest', 'establishment']",3.3,74
ChIJD8ivG7YZQjERxe5fgwGSVao,Karaoke camel,"7 Xuân Hòa 1, Hòa Khê, Thanh Khê, Đà Nẵng 550000, Vietnam",16.067675,108.1915169,"['Monday: 9:00\u202fAM\u2009–\u200912:00\u202fAM', 'Tuesday: 9:00\u202fAM\u2009–\u200912:00\u202fAM', 'Wednesday: 9:00\u202fAM\u2009–\u200912:00\u202fAM', 'Thursday: 9:00\u202fAM\u2009–\u200912:00\u202fAM', 'Friday: 9:00\u202fAM\u2009–\u200912:00\u202fAM', 'Saturday: 9:00\u202fAM\u2009–\u200912:00\u202fAM', 'Sunday: 9:00\u202fAM\u2009–\u200912:00\u202fAM']","['tourist_attraction', 'point_of_interest', 'establishment']",4.8,10
ChIJq-8RcEkZQjER6Y97EGQg4g4,Massage,"177 Đ. Trần Phú, Hải Châu 1, Q. Hải Châu, Đà Nẵng 550000, Vietnam",16.066422,108.2238567,"['Monday: 10:00\u202fAM\u2009–\u200912:00\u202fAM', 'Tuesday: 10:00\u202fAM\u2009–\u200912:00\u202fAM', 'Wednesday: 10:00\u202fAM\u2009–\u200912:00\u202fAM', 'Thursday: 10:00\u202fAM\u2009–\u200912:00\u202fAM', 'Friday: 10:00\u202fAM\u2009–\u200912:00\u202fAM', 'Saturday: Open 24 hours', 'Sunday: Open 24 hours']","['tourist_attraction', 'point_of_interest', 'establishment']",,
ChIJ6XD02FMZQjERzT9uC9hB_oY,Quảng trường 2/9,"26RF+F35, Hòa Cường, Hải Châu District, Da Nang, Vietnam",16.0411297,108.2227389,,"['tourist_attraction', 'point_of_interest', 'establishment']",4.5,26
ChIJL1GKWJYZQjERLrEGqlK2kwQ,Drachenbrücke (Cầu Rồng),"29 Cầu Rồng, An Hải Trung, Sơn Trà, Đà Nẵng 550000, Vietnam",16.0612993,108.2271986,"['Monday: Open 24 hours', 'Tuesday: Open 24 hours', 'Wednesday: Open 24 hours', 'Thursday: Open 24 hours', 'Friday: Open 24 hours', 'Saturday: Open 24 hours', 'Sunday: Open 24 hours']","['tourist_attraction', 'point_of_interest', 'establishment']",5,2
ChIJ22t6tSYZQjER2vqQjMqhnsI,Heo Quay Ông Tỵ,"538 Trần Cao Vân, Xuân Hà, Thanh Khê, Đà Nẵng 550000, Vietnam",16.0713129,108.1943244,,"['tourist_attraction', 'point_of_interest', 'establishment']",5,2
ChIJiVEp-zsZQjERKKgVAGERFrE,Dragon Bridge,"27 Cầu Rồng, An Hải Trung, Sơn Trà, Đà Nẵng 550000, Vietnam",16.0611087,108.2274955,,"['tourist_attraction', 'point_of_interest', 'establishment']",4.6,58
ChIJpb6jDYUZQjERKU-DXSekLIE,Grass Square,"26RF+45R, 30 Tháng 4, Hoà Cường Bắc, Hải Châu, Đà Nẵng, Vietnam",16.0403618,108.2228858,"['Monday: Open 24 hours', 'Tuesday: Open 24 hours', 'Wednesday: Open 24 hours', 'Thursday: Open 24 hours', 'Friday: Open 24 hours', 'Saturday: Open 24 hours', 'Sunday: Open 24 hours']","['tourist_attraction', 'point_of_interest', 'establishment']",4.4,5
ChIJI4dziJEZQjERgstBZnZ5cSk,Chả Bò Đà Nẵng - Đặc Sản Đà Nẵng Hà Hoa,"72 Nguyễn Dữ, Khuê Trung, Cẩm Lệ, Đà Nẵng 50000, Vietnam",16.0334222,108.207884,,"['tourist_attraction', 'grocery_or_supermarket', 'point_of_interest', 'health', 'store', 'food', 'establishment']",4.8,24
ChIJDcx-OTIYQjERP4eyjItPspA,Han Market,"119 Đ. Trần Phú, Hải Châu 1, Hải Châu, Đà Nẵng 550000, Vietnam",16.0682581,108.224269,"['Monday: 6:00\u202fAM\u2009–\u20097:00\u202fPM', 'Tuesday: 6:00\u202fAM\u2009–\u20097:00\u202fPM', 'Wednesday: 6:00\u202fAM\u2009–\u20097:00\u202fPM', 'Thursday: 6:00\u202fAM\u2009–\u20097:00\u202fPM', 'Friday: 6:00\u202fAM\u2009–\u20097:00\u202fPM', 'Saturday: 6:00\u202fAM\u2009–\u20097:00\u202fPM', 'Sunday: 6:00\u202fAM\u2009–\u20097:00\u202fPM']","['tourist_attraction', 'point_of_interest', 'establishment']",3.8,20276
ChIJz4Y1XCcZQjERzg9AZYfOGH8,Bãi Biển Thiên Đường,"35FV+2R9, Xuan Ha, Thanh Khê District, Da Nang 550000, Vietnam",16.0725445,108.1946026,"['Monday: Open 24 hours', 'Tuesday: Open 24 hours', 'Wednesday: Open 24 hours', 'Thursday: Open 24 hours', 'Friday: Open 24 hours', 'Saturday: Open 24 hours', 'Sunday: Open 24 hours']","['tourist_attraction', 'point_of_interest', 'establishment']",4.4,7
ChIJTdEIjH4ZQjERMQ5qnTUbHFU,Nguyen Van Troi Walking Bridge,"Nguyễn Văn Trỗi Bridge, Bắc Mỹ Phú, Sơn Trà, Đà Nẵng 550000, Vietnam",16.0510826,108.2290629,"['Monday: Open 24 hours', 'Tuesday: Open 24 hours', 'Wednesday: Open 24 hours', 'Thursday: Open 24 hours', 'Friday: Open 24 hours', 'Saturday: Open 24 hours', 'Sunday: Open 24 hours']","['tourist_attraction', 'point_of_interest', 'establishment']",4.8,67
ChIJVwCYLlMYQjER5C5nOpHcglg,Đà Nẵng Travel Mart,"515 Trần Cao Vân, Xuân Hà, Thanh Khê, Đà Nẵng 550000, Vietnam",16.0711506,108.1904043,"['Monday: Open 24 hours', 'Tuesday: Open 24 hours', 'Wednesday: Open 24 hours', 'Thursday: Open 24 hours', 'Friday: Open 24 hours', 'Saturday: Open 24 hours', 'Sunday: Open 24 hours']","['tourist_attraction', 'point_of_interest', 'establishment']",4.5,20
ChIJ4e98LzAZQjERfbT5tjHCmNI,Yêu hơn mỗi ngày,"367H+8RV, An Hải, Sơn Trà, Da Nang 550000, Vietnam",16.0633543,108.2295605,,"['tourist_attraction', 'point_of_interest', 'establishment']",,
ChIJ3cVClWEZQjER_gdKDyG2Q30,Cầu Tình Yêu Đà Nẵng,"367H+8R9, Đ. Trần Hưng Đạo, An Hải, Sơn Trà, Đà Nẵng 550000, Vietnam",16.0632799,108.2296041,"['Monday: Open 24 hours', 'Tuesday: Open 24 hours', 'Wednesday: Open 24 hours', 'Thursday: Open 24 hours', 'Friday: Open 24 hours', 'Saturday: Open 24 hours', 'Sunday: Open 24 hours']","['tourist_attraction', 'point_of_interest', 'establishment']",4.5,1735
ChIJ4QBQgowZQjERs200POAfAZs,Tượng Cá Chép Hóa Rồng,"Đ. Trần Hưng Đạo, An Hải, Sơn Trà, Đà Nẵng 550000, Vietnam",16.06291,108.229815,"['Monday: Open 24 hours', 'Tuesday: Open 24 hours', 'Wednesday: Open 24 hours', 'Thursday: Open 24 hours', 'Friday: Open 24 hours', 'Saturday: Open 24 hours', 'Sunday: Open 24 hours']","['tourist_attraction', 'point_of_interest', 'establishment']",4.6,141
ChIJL710Z-gZQjERTwK6WEaLM1c,Children's cultural houses,"2a Phan Đăng Lưu, Hoà Cường Bắc, Hải Châu, Đà Nẵng, Vietnam",16.0387805,108.2254072,"['Monday: 8:00\u202fAM\u2009–\u20096:00\u202fPM', 'Tuesday: 8:00\u202fAM\u2009–\u20096:00\u202fPM', 'Wednesday: 8:00\u202fAM\u2009–\u20096:00\u202fPM', 'Thursday: 8:00\u202fAM\u2009–\u20096:00\u202fPM', 'Friday: 8:00\u202fAM\u2009–\u20096:00\u202fPM', 'Saturday: 8:00\u202fAM\u2009–\u20096:00\u202fPM', 'Sunday: 8:00\u202fAM\u2009–\u20096:00\u202fPM']","['tourist_attraction', 'point_of_interest', 'establishment']",4.4,1273
ChIJ3yiA7dMZQjERY4jp0EEjB3I,Sena homestay Cầu Rồng Đà Nẵng,"K3/12 Hà Thị Thân, An Hải Tây, Sơn Trà, Đà Nẵng 550000, Vietnam",16.0602902,108.2314969,"['Monday: 6:30\u202fAM\u2009–\u200911:00\u202fPM', 'Tuesday: 6:30\u202fAM\u2009–\u200911:00\u202fPM', 'Wednesday: 7:00\u202fAM\u2009–\u200911:00\u202fPM', 'Thursday: 7:00\u202fAM\u2009–\u200910:30\u202fPM', 'Friday: 7:00\u202fAM\u2009–\u200911:00\u202fPM', 'Saturday: 7:00\u202fAM\u2009–\u200910:30\u202fPM', 'Sunday: 7:00\u202fAM\u2009–\u200910:00\u202fPM']","['tourist_attraction', 'lodging', 'point_of_interest', 'establishment']",5,32
ChIJ6--gHakZQjERyso1M6Tbd3c,Góc chill bên sông hàn,"26WJ+H7, Hòa Cường, Hải Châu District, Da Nang 550000, Vietnam",16.0463764,108.2306428,,"['tourist_attraction', 'point_of_interest', 'establishment']",,
ChIJg0mY6HIZQjERi32p6NWCCLs,Đầu cầu Phú Lộc,"359P+C89, Thanh Khê Đông, Thanh Khê District, Da Nang, Vietnam",16.068549,108.1858582,,"['tourist_attraction', 'point_of_interest', 'establishment']",,
ChIJP_By1aoZQjERhzsWMXRW0Pg,Cầu Đặng Đình Vân,"359P+C89, Thanh Khê Đông, Thanh Khê District, Da Nang, Vietnam",16.068549,108.1858582,,"['tourist_attraction', 'point_of_interest', 'establishment']",,
ChIJJxPH3yoZQjERMfjOzzLvmxU,Han River Bridge Viewpoint,"36CG+RC6, Hải Châu 1, Hải Châu District, Da Nang 550000, Vietnam",16.0720345,108.2260117,"['Monday: Open 24 hours', 'Tuesday: Open 24 hours', 'Wednesday: Open 24 hours', 'Thursday: Open 24 hours', 'Friday: Open 24 hours', 'Saturday: Open 24 hours', 'Sunday: Open 24 hours']","['tourist_attraction', 'point_of_interest', 'establishment']",,
ChIJlZA7YgEZQjERwBfzBwsUo18,Da Nang specialties as gifts - Duong Le,"516 Núi Thành, Hoà Cường Nam, Hải Châu, Đà Nẵng 550000, Vietnam",16.0343577,108.2224462,"['Monday: 9:00\u202fAM\u2009–\u20099:00\u202fPM', 'Tuesday: 9:00\u202fAM\u2009–\u20099:00\u202fPM', 'Wednesday: 9:00\u202fAM\u2009–\u20099:00\u202fPM', 'Thursday: 9:00\u202fAM\u2009–\u20099:00\u202fPM', 'Friday: 9:00\u202fAM\u2009–\u20099:00\u202fPM', 'Saturday: 9:00\u202fAM\u2009–\u20098:00\u202fPM', 'Sunday: 9:00\u202fAM\u2009–\u20098:00\u202fPM']","['tourist_attraction', 'grocery_or_supermarket', 'health', 'food', 'point_of_interest', 'store', 'establishment']",4.9,60
ChIJCUdeKx0aQjERC09WVfd_ITg,Hoa Xuan,"Hoa Xuan, Cẩm Lệ District, Da Nang, Vietnam",16.0019983,108.2199588,,"['sublocality_level_1', 'sublocality', 'political']",,
ChIJmcxAh_MaQjERwZDjTqONu2g,Nguyen Van Linh Secondary School,"Thôn Nhơn Thọ 1, Hoà Phước, Hòa Vang, Đà Nẵng, Vietnam",15.9584725,108.2118981,,"['school', 'point_of_interest', 'establishment']",4.4,21
ChIJlXSkiFsaQjERej1D-1ikTL4,Petrolimex Gas Station Store No.1,"X6J5+X43, Phạm Hùng, Hoà Phước, Hòa Vang, Đà Nẵng 550000, Vietnam",15.9823845,108.2077974,"['Monday: 6:00\u202fAM\u2009–\u20099:30\u202fPM', 'Tuesday: 6:00\u202fAM\u2009–\u20099:30\u202fPM', 'Wednesday: 6:00\u202fAM\u2009–\u20099:30\u202fPM', 'Thursday: 6:00\u202fAM\u2009–\u20099:30\u202fPM', 'Friday: 6:00\u202fAM\u2009–\u20099:30\u202fPM', 'Saturday: 6:00\u202fAM\u2009–\u20099:30\u202fPM', 'Sunday: 6:00\u202fAM\u2009–\u20099:30\u202fPM']","['gas_station', 'point_of_interest', 'establishment']",4,25
ChIJZy-6PpMaQjERFu9imqpht6g,People's Committee of Hoa Phuoc,"X658+F3J, QL1A, Hoà Phước, Hòa Vang, Đà Nẵng, Vietnam",15.9587006,108.215154,"['Monday: 7:30\u2009–\u200911:30\u202fAM, 1:30\u2009–\u20095:30\u202fPM', 'Tuesday: 7:30\u2009–\u200911:30\u202fAM, 1:30\u2009–\u20095:30\u202fPM', 'Wednesday: 7:30\u2009–\u200911:30\u202fAM, 1:30\u2009–\u20095:30\u202fPM', 'Thursday: 7:30\u2009–\u200911:30\u202fAM, 1:30\u2009–\u20095:30\u202fPM', 'Friday: 7:30\u2009–\u200911:30\u202fAM, 1:30\u2009–\u20095:30\u202fPM', 'Saturday: 7:30\u2009–\u200911:30\u202fAM', 'Sunday: Closed']","['local_government_office', 'point_of_interest', 'establishment']",4.5,11
ChIJq6qqqvMaQjERuXwLj8rRUo8,cửa hàng xăng dầu petrolimex 18,"Hòa Phước, Hòa Vang, Da Nang, Vietnam",15.966193,108.211637,"['Monday: Open 24 hours', 'Tuesday: Open 24 hours', 'Wednesday: Open 24 hours', 'Thursday: Open 24 hours', 'Friday: Open 24 hours', 'Saturday: Open 24 hours', 'Sunday: Open 24 hours']","['gas_station', 'point_of_interest', 'establishment']",1,1
ChIJefTYsV4aQjERe1aKlnbyyt0,Hoa Khanh Petroleum Store 5 - Hoa Phuoc,"Quốc lộ 1 , Miếu Bông, Hoà Phước, Hòa Vang, Đà Nẵng 550000, Vietnam",15.9778424,108.2084998,"['Monday: Open 24 hours', 'Tuesday: Open 24 hours', 'Wednesday: Open 24 hours', 'Thursday: Open 24 hours', 'Friday: Open 24 hours', 'Saturday: Open 24 hours', 'Sunday: Open 24 hours']","['gas_station', 'point_of_interest', 'establishment']",3.9,38
ChIJM07lH_MaQjERCNKwf0iePyY,Gas Petrolimex JSC,"X686+9XM, Miếu Bông, Hoà Phước, Hòa Vang, Đà Nẵng, Vietnam",15.9659518,108.212424,,"['point_of_interest', 'establishment']",,
ChIJgdkrt-waQjERuXYNNqUFrjc,Trường Tiểu học Số 2 Hòa Phước_clb taekwondo DHTC,"X657+C84, Thôn Nhơn Thọ, Hòa Vang, Đà Nẵng, Vietnam",15.9585237,108.2133322,,"['primary_school', 'school', 'point_of_interest', 'establishment']",3.3,13
ChIJw8E--fUaQjERMIoc5DlTt2M,Cty TNHH Ô tô HẢI ÂU Đà Nẵng,"X6F5+M5P, AH1, Hoà Phước, Hòa Vang, Đà Nẵng, Vietnam",15.9742039,108.2079642,"['Monday: 8:00\u202fAM\u2009–\u20095:30\u202fPM', 'Tuesday: 8:00\u202fAM\u2009–\u20095:30\u202fPM', 'Wednesday: 8:00\u202fAM\u2009–\u20095:30\u202fPM', 'Thursday: 8:00\u202fAM\u2009–\u20095:30\u202fPM', 'Friday: 8:00\u202fAM\u2009–\u20095:30\u202fPM', 'Saturday: 8:00\u202fAM\u2009–\u200912:00\u202fPM', 'Sunday: Closed']","['car_repair', 'point_of_interest', 'establishment']",3.9,19
ChIJIfIpQZMaQjERJJ3qX8mFXXU,Long Copy Shop,"QL1A, Hoà Phước, Hòa Vang, Đà Nẵng 550000, Vietnam",15.9584788,108.2151709,"['Monday: 7:30\u202fAM\u2009–\u20095:00\u202fPM', 'Tuesday: 7:30\u202fAM\u2009–\u20095:00\u202fPM', 'Wednesday: 7:30\u202fAM\u2009–\u20095:00\u202fPM', 'Thursday: 7:30\u202fAM\u2009–\u20095:00\u202fPM', 'Friday: 7:30\u202fAM\u2009–\u20095:00\u202fPM', 'Saturday: 8:00\u2009–\u200911:00\u202fAM', 'Sunday: Closed']","['point_of_interest', 'establishment']",5,12
ChIJxRBomlcaQjERaFY9yz6RxwM,Công Ty TNHH Một Thành Viên Nho Lộc,"X6H2+2FM, Hòa Châu, Hòa Vang, Da Nang 550000, Vietnam",15.9775944,108.2011696,"['Monday: 8:00\u202fAM\u2009–\u20096:00\u202fPM', 'Tuesday: 8:00\u202fAM\u2009–\u20096:00\u202fPM', 'Wednesday: 8:00\u202fAM\u2009–\u20096:00\u202fPM', 'Thursday: 8:00\u202fAM\u2009–\u20096:00\u202fPM', 'Friday: 8:00\u202fAM\u2009–\u20096:00\u202fPM', 'Saturday: 8:00\u202fAM\u2009–\u20096:00\u202fPM', 'Sunday: Closed']","['point_of_interest', 'establishment']",4,1
ChIJ47bcsl0aQjERRwrIvo_nRwU,GENETIC ANALYSIS CENTER (DNA) DA NANG,"Tổ 5, Phường Hòa Xuân ., (491 đường Phạm Hùng đi vào 300m), Hoà Xuân, Cẩm Lệ, Đà Nẵng 550000, Vietnam",15.982154,108.211137,"['Monday: 7:00\u202fAM\u2009–\u20095:00\u202fPM', 'Tuesday: 7:00\u202fAM\u2009–\u20095:00\u202fPM', 'Wednesday: 7:00\u202fAM\u2009–\u20095:00\u202fPM', 'Thursday: 7:00\u202fAM\u2009–\u20095:00\u202fPM', 'Friday: 7:00\u202fAM\u2009–\u20095:00\u202fPM', 'Saturday: Closed', 'Sunday: Closed']","['health', 'point_of_interest', 'establishment']",,
ChIJdeDYsl0aQjER4x1kU3VWvg0,Phân viện Khoa học Hình sự - Bộ Công an,"284 Đô Đốc Lân, Hoà Xuân, Cẩm Lệ, Đà Nẵng 550000, Vietnam",15.982325,108.2110353,,"['police', 'finance', 'point_of_interest', 'establishment']",4.8,14
ChIJKaP1xVsaQjERT9BRU6VP2H8,Trường Tiểu học Hòa Phước,"X6J4+J9P, QL1A, Hoà Phước, Hòa Vang, Đà Nẵng 550000, Vietnam",15.9815912,108.205966,,"['primary_school', 'school', 'point_of_interest', 'establishment']",4.7,7
ChIJwzFjU1kaQjERLbhfR9Yj-MA,Đồng Tiến Bakery,"Đà Nẵng, Việt Nam, Bưu điện Miếu Bông, QL1A, Hoà Phước, Hòa Vang, Đà Nẵng 550000, Vietnam",15.9801203,108.2079518,"['Monday: 5:00\u202fAM\u2009–\u200910:00\u202fPM', 'Tuesday: 5:00\u202fAM\u2009–\u200910:00\u202fPM', 'Wednesday: 5:00\u202fAM\u2009–\u200910:00\u202fPM', 'Thursday: 5:00\u202fAM\u2009–\u200910:00\u202fPM', 'Friday: 5:00\u202fAM\u2009–\u200910:00\u202fPM', 'Saturday: 5:00\u202fAM\u2009–\u200910:00\u202fPM', 'Sunday: 5:00\u202fAM\u2009–\u200910:00\u202fPM']","['bakery', 'point_of_interest', 'store', 'food', 'establishment']",4.5,42
ChIJeTl_OV8aQjER2YtxGnecrFs,Agribank Hòa Phước,"X6J5+P4Q, Phạm Hùng, Hoà Phước, Hòa Vang, Đà Nẵng 550000, Vietnam",15.9818434,108.2078651,"['Monday: 7:30\u202fAM\u2009–\u20094:30\u202fPM', 'Tuesday: 7:30\u202fAM\u2009–\u20094:30\u202fPM', 'Wednesday: 7:30\u202fAM\u2009–\u20094:30\u202fPM', 'Thursday: 7:30\u202fAM\u2009–\u20094:30\u202fPM', 'Friday: 7:30\u202fAM\u2009–\u20094:30\u202fPM', 'Saturday: Closed', 'Sunday: Closed']","['bank', 'finance', 'point_of_interest', 'establishment']",3.8,6
ChIJqUBisVsaQjERTXgZBPqZMsM,Phuoc Hoa PVOIL CHXD,"QL1A, Hoà Phước, Đà Nẵng, Hoà Phước, Đà Nẵng, 550000, Vietnam",15.9825091,108.2053379,"['Monday: 5:00\u202fAM\u2009–\u20099:00\u202fPM', 'Tuesday: 5:00\u202fAM\u2009–\u20099:00\u202fPM', 'Wednesday: 5:00\u202fAM\u2009–\u20099:00\u202fPM', 'Thursday: 5:00\u202fAM\u2009–\u20099:00\u202fPM', 'Friday: 5:00\u202fAM\u2009–\u20099:00\u202fPM', 'Saturday: 5:00\u202fAM\u2009–\u20099:00\u202fPM', 'Sunday: 5:00\u202fAM\u2009–\u20099:00\u202fPM']","['gas_station', 'point_of_interest', 'establishment']",3.7,23
ChIJ9THxeFwaQjERTxkamqkP3qQ,Mobile World supermarket,"431, 433 Phạm Hùng, P, Cẩm Lệ, Đà Nẵng 50000, Vietnam",15.9828099,108.2081907,"['Monday: 8:00\u202fAM\u2009–\u200910:00\u202fPM', 'Tuesday: 8:00\u202fAM\u2009–\u200910:00\u202fPM', 'Wednesday: 8:00\u202fAM\u2009–\u200910:00\u202fPM', 'Thursday: 8:00\u202fAM\u2009–\u200910:00\u202fPM', 'Friday: 8:00\u202fAM\u2009–\u200910:00\u202fPM', 'Saturday: 8:00\u202fAM\u2009–\u200910:00\u202fPM', 'Sunday: 8:00\u202fAM\u2009–\u200910:00\u202fPM']","['electronics_store', 'store', 'point_of_interest', 'establishment']",4.4,78
ChIJDa8MgVsaQjERIiygWahf04A,Trung tâm Bảo hành 462 và BKNET,"638 Phạm Hùng, Hoà Phước, Hòa Vang, Đà Nẵng 550000, Vietnam",15.9831129,108.2078469,,"['finance', 'point_of_interest', 'establishment']",5,12
ChIJ6eHSl_QaQjERhGq5xiPe1eU,Hòa Phước,"Hòa Phước, Hòa Vang, Đà Nẵng, Vietnam",15.9660545,108.2110626,,"['sublocality_level_1', 'sublocality', 'political']",,
ChIJge2Hq1waQjERzZFQbUgdm2A,Cung cấp giải pháp phần mềm cho doanh nghiệp,"Phạm Hùng, Hoà Phước, Cẩm Lệ, Đà Nẵng 550000, Vietnam",15.9858754,108.2085502,,"['point_of_interest', 'establishment']",1,1
ChIJvSAYWFEaQjERi-AzevSWpEA,Trung Tâm Đăng Kiểm Xe Cơ Giới 4302S,"X6P3+28F, QL1A, Hoà Phước, Hòa Vang, Đà Nẵng 550000, Vietnam",15.9850712,108.2032813,"['Monday: 7:30\u202fAM\u2009–\u20095:30\u202fPM', 'Tuesday: 7:30\u202fAM\u2009–\u20095:30\u202fPM', 'Wednesday: 7:30\u202fAM\u2009–\u20095:30\u202fPM', 'Thursday: 7:30\u202fAM\u2009–\u20095:30\u202fPM', 'Friday: 7:30\u202fAM\u2009–\u20095:30\u202fPM', 'Saturday: 7:30\u202fAM\u2009–\u20095:30\u202fPM', 'Sunday: Closed']","['car_repair', 'point_of_interest', 'establishment']",4,299
ChIJ7-yUsloaQjERmQIRFqZxrJ0,Công ty TNHH Việt Hương,"QL1A, Hoà Châu, Hòa Vang, Đà Nẵng 550000, Vietnam",15.9857465,108.202641,,"['point_of_interest', 'establishment']",4.4,7
ChIJQasUs1oaQjERLm69hXQG7ZY,"Mien Trung 4 Oranges Co., Ltd Branches","Quốc Lộ 1, Xã Hòa Châu, Huyện Hòa Vang, Hoà Châu, Hòa Vang, Đà Nẵng 550000, Vietnam",15.9864108,108.2031939,,"['point_of_interest', 'establishment']",,
ChIJeWAbsUIaQjER_bySwQNCbHk,Khải Hoàng Sơn,"04 Cổ Mân Mai 2, P, Cẩm Lệ, Đà Nẵng 550000, Vietnam",15.9862453,108.21341,,"['real_estate_agency', 'point_of_interest', 'establishment']",3,1
ChIJQQS8v0QaQjER4iJPO35Igaw,Food Hiền Anh,"Huỳnh Tịnh Của,, X6Q4+2M5, Hoà Phước, Hòa Vang, Đà Nẵng 550000, Vietnam",15.9875041,108.2067431,"['Monday: Open 24 hours', 'Tuesday: Open 24 hours', 'Wednesday: Open 24 hours', 'Thursday: Open 24 hours', 'Friday: Open 24 hours', 'Saturday: Open 24 hours', 'Sunday: Closed']","['grocery_or_supermarket', 'store', 'food', 'point_of_interest', 'establishment']",4,1
ChIJrXcAq0QaQjERsOUzeW_zwMA,Honda Hiếu Nga 3,"301 Phạm Hùng, Hoà Phước, Hòa Vang, Đà Nẵng 550000, Vietnam",15.9875777,108.2079472,,"['point_of_interest', 'store', 'establishment']",3.3,6
ChIJGWibc0QaQjERltC0XQTWmu0,Công Ty TNHH MTV Sơn Hà Nghệ An Chi Nhánh Đà Nẵng,"277, 279 Phạm Hùng, Hoà Phước, Hòa Vang, Đà Nẵng 550000, Vietnam",15.9882593,108.2078771,"['Monday: 7:30\u202fAM\u2009–\u20095:00\u202fPM', 'Tuesday: 7:30\u202fAM\u2009–\u20095:00\u202fPM', 'Wednesday: 7:30\u202fAM\u2009–\u20095:00\u202fPM', 'Thursday: 7:30\u202fAM\u2009–\u20095:00\u202fPM', 'Friday: 7:30\u202fAM\u2009–\u20095:00\u202fPM', 'Saturday: 7:30\u202fAM\u2009–\u20095:00\u202fPM', 'Sunday: 7:30\u202fAM\u2009–\u20095:00\u202fPM']","['point_of_interest', 'establishment']",5,4
ChIJG5pAcqobQjERN6S86jH6TZY,Xưởng Cắt Gạch Tâm,"X5GP+WF6, Hòa Châu, Hòa Vang, Da Nang, Vietnam",15.977299,108.1861335,"['Monday: Open 24 hours', 'Tuesday: Open 24 hours', 'Wednesday: Open 24 hours', 'Thursday: Open 24 hours', 'Friday: Open 24 hours', 'Saturday: Open 24 hours', 'Sunday: Open 24 hours']","['home_goods_store', 'store', 'point_of_interest', 'establishment']",,
ChIJ1cZadrwaQjERfWHiw9om3B0,Điện Tử Hitech,"cầu Tứ Câu, Điện Thắng Bắc, Điện Bàn, Quảng Nam, Vietnam",15.9454559,108.2214511,"['Monday: 8:00\u202fAM\u2009–\u20098:00\u202fPM', 'Tuesday: 8:00\u202fAM\u2009–\u20098:00\u202fPM', 'Wednesday: 8:00\u202fAM\u2009–\u20098:00\u202fPM', 'Thursday: 8:00\u202fAM\u2009–\u20098:00\u202fPM', 'Friday: 8:00\u202fAM\u2009–\u20098:00\u202fPM', 'Saturday: 8:00\u202fAM\u2009–\u20098:00\u202fPM', 'Sunday: Closed']","['electronics_store', 'store', 'point_of_interest', 'establishment']",5,2
ChIJaXUeDlIaQjERd5c4r2Wo5nk,Secondary School Nguyen Hong Anh,"đường Nam thôn Phong Tp, X5PW+VMH, Hoà Châu, Hòa Vang, Đà Nẵng 550000, Vietnam",15.9871803,108.1967221,,"['school', 'point_of_interest', 'establishment']",4.9,22
ChIJB7hYTgQbQjERP9xZgcahXkM,Binboong Studio,"Đối diện trường THCS Nguyễn Phú Hường, ĐT605, Hoà Tiến, Hòa Vang, Đà Nẵng, Vietnam",15.969622,108.1819529,,"['furniture_store', 'home_goods_store', 'store', 'point_of_interest', 'establishment']",4,1
ChIJxSF2BFIaQjERQwAWQHJvbqI,Trường Mầm non Hòa Châu,"X5PW+Q72, Phong Nam, Hòa Vang, Đà Nẵng 550000, Vietnam",15.9868911,108.1956332,,"['school', 'point_of_interest', 'establishment']",4.9,8
ChIJz6LxOKobQjERTcT0NM6bXgU,Mây Cafe,"Dương Sơn, ĐT605, Hoà Châu, Hòa Vang, Đà Nẵng, Vietnam",15.978637,108.185736,"['Monday: 8:00\u202fAM\u2009–\u200910:00\u202fPM', 'Tuesday: 8:00\u202fAM\u2009–\u200910:00\u202fPM', 'Wednesday: 8:00\u202fAM\u2009–\u200910:00\u202fPM', 'Thursday: 8:00\u202fAM\u2009–\u200910:00\u202fPM', 'Friday: 9:00\u202fAM\u2009–\u200910:00\u202fPM', 'Saturday: 9:00\u202fAM\u2009–\u200910:00\u202fPM', 'Sunday: 9:00\u202fAM\u2009–\u200910:00\u202fPM']","['cafe', 'food', 'store', 'point_of_interest', 'establishment']",4,148
ChIJkWWdc0QaQjER1thjONMgUEw,VLXD Thịnh Phát,"268 Phạm Hùng, Hoà Phước, Hòa Vang, Đà Nẵng 550000, Vietnam",15.9897771,108.2078463,,"['point_of_interest', 'establishment']",,
ChIJAQAAAAwbQjERwlOxOTsGWwQ,Uỷ Ban Nhân Dân Xã Hòa Tiến,"X5CJ+3HX, ĐT605, Hoà Tiến, Hòa Vang, Đà Nẵng, Vietnam",15.9702409,108.1814878,"['Monday: Open 24 hours', 'Tuesday: Open 24 hours', 'Wednesday: Open 24 hours', 'Thursday: Open 24 hours', 'Friday: Open 24 hours', 'Saturday: Open 24 hours', 'Sunday: Open 24 hours']","['local_government_office', 'point_of_interest', 'establishment']",4.7,6
ChIJNWcxyGkaQjER8WjcmCglDeI,IMOS Việt Nam,"33 Tùng Lâm 3, Hoà Xuân, Cẩm Lệ, Đà Nẵng 550000, Vietnam",15.9887529,108.2152346,"['Monday: 8:00\u202fAM\u2009–\u20096:00\u202fPM', 'Tuesday: 8:00\u202fAM\u2009–\u20096:00\u202fPM', 'Wednesday: 8:00\u202fAM\u2009–\u20096:00\u202fPM', 'Thursday: 8:00\u202fAM\u2009–\u20096:00\u202fPM', 'Friday: 8:00\u202fAM\u2009–\u20096:00\u202fPM', 'Saturday: Closed', 'Sunday: Closed']","['point_of_interest', 'establishment']",4,3
ChIJOWsc_gQbQjER_W7CcGSTr9k,Primary School No. 2 Hoa Tien,"X59J+CF2, ĐT605, Hoà Tiến, Hòa Vang, Đà Nẵng, Vietnam",15.9685045,108.1811319,,"['primary_school', 'school', 'point_of_interest', 'establishment']",3.6,20
ChIJt-B2LycbQjERDqQjL1PiSuk,Nhà thờ tộc Nguyễn Quang Tiền,"W5XQ+24P, Điện Hòa, Điện Bàn, Quảng Nam, Vietnam",15.9475955,108.1878323,,"['place_of_worship', 'church', 'point_of_interest', 'establishment']",5,1
ChIJcZcNtAUbQjERlVfCq5GsuxU,Huong Nguyen Phu Secondary School,"X59J+WFM, ĐT605, Hoà Tiến, Hòa Vang, Đà Nẵng, Vietnam",15.9698384,108.1811659,,"['school', 'point_of_interest', 'establishment']",4.5,19
ChIJBc5LrQUbQjERIIyZjJwkqyk,Trạm Y tế xã Hòa Tiến,"X59J+P9G, ĐT605, Hoà Tiến, Hòa Vang, Đà Nẵng, Vietnam",15.9693061,108.1809559,,"['hospital', 'health', 'point_of_interest', 'establishment']",5,1
ChIJ0Yd060MaQjERIp7Ed7_oWIM,NQfashion,"X6R5+4QC, Lỗ Giáng 20, Hòa Vang, Đà Nẵng 550000, Vietnam",15.9903183,108.2093837,,"['clothing_store', 'point_of_interest', 'store', 'establishment']",,
ChIJcbzBFw8bQjERQbhQgxZNwW8,Tạp hoá Bé Hương,"X674+RW7, Hòa Phước, Hòa Vang, Da Nang, Vietnam",15.9645473,108.2073112,"['Monday: Open 24 hours', 'Tuesday: Open 24 hours', 'Wednesday: Open 24 hours', 'Thursday: Open 24 hours', 'Friday: Open 24 hours', 'Saturday: Open 24 hours', 'Sunday: Open 24 hours']","['store', 'point_of_interest', 'establishment']",,
ChIJ858t7vEaQjERYSKs6_4_li0,Tạp Hóa Hà Châu,"Hòa Phước, Hòa Vang, Da Nang, Vietnam",15.9644501,108.2073153,,"['point_of_interest', 'establishment']",,
ChIJVZ663fEaQjERZgSzdtOGT58,Phước Nguyễn,"Hòa Phước, Hòa Vang, Da Nang, Vietnam",15.9641583,108.2064013,,"['point_of_interest', 'establishment']",,
ChIJIXNWQ7IbQjERxxtFTcsrH80,Hương cafe,"Tổ 3 thôn quá giáng 2, Hoà Phước, Hòa Vang, Đà Nẵng, Vietnam",15.9655098,108.2078176,"['Monday: 5:00\u202fAM\u2009–\u200911:30\u202fPM', 'Tuesday: 5:00\u202fAM\u2009–\u200911:30\u202fPM', 'Wednesday: 5:00\u202fAM\u2009–\u200911:30\u202fPM', 'Thursday: 5:00\u202fAM\u2009–\u200911:30\u202fPM', 'Friday: 5:00\u202fAM\u2009–\u200911:30\u202fPM', 'Saturday: 5:00\u202fAM\u2009–\u200911:30\u202fPM', 'Sunday: 5:00\u202fAM\u2009–\u200911:30\u202fPM']","['cafe', 'food', 'point_of_interest', 'establishment']",4.8,4
