ID,Name,Address,Latitude,Longitude,Opening Hours,Types,Rating,User Ratings Total
ChIJ3cVClWEZQjER_gdKDyG2Q30,Cầu Tình Yêu Đà Nẵng,"367H+8R9, Đ. Trần Hưng Đạo, An Hải, Sơn Trà, Đà Nẵng 550000, Vietnam",16.0632799,108.2296041,"['Monday: Open 24 hours', 'Tuesday: Open 24 hours', 'Wednesday: Open 24 hours', 'Thursday: Open 24 hours', 'Friday: Open 24 hours', 'Saturday: Open 24 hours', 'Sunday: Open 24 hours']","['tourist_attraction', 'point_of_interest', 'establishment']",4.5,1735
ChIJ3yiA7dMZQjERY4jp0EEjB3I,Sena homestay Cầu Rồng Đà Nẵng,"K3/12 Hà Thị Thân, An Hải Tây, Sơn Trà, Đà Nẵng 550000, Vietnam",16.0602902,108.2314969,"['Monday: 6:30\u202fAM\u2009–\u200911:00\u202fPM', 'Tuesday: 6:30\u202fAM\u2009–\u200911:00\u202fPM', 'Wednesday: 7:00\u202fAM\u2009–\u200911:00\u202fPM', 'Thursday: 7:00\u202fAM\u2009–\u200910:30\u202fPM', 'Friday: 7:00\u202fAM\u2009–\u200911:00\u202fPM', 'Saturday: 7:00\u202fAM\u2009–\u200910:30\u202fPM', 'Sunday: 7:00\u202fAM\u2009–\u200910:00\u202fPM']","['tourist_attraction', 'lodging', 'point_of_interest', 'establishment']",5,32
ChIJ4QBQgowZQjERs200POAfAZs,Tượng Cá Chép Hóa Rồng,"Đ. Trần Hưng Đạo, An Hải, Sơn Trà, Đà Nẵng 550000, Vietnam",16.06291,108.229815,"['Monday: Open 24 hours', 'Tuesday: Open 24 hours', 'Wednesday: Open 24 hours', 'Thursday: Open 24 hours', 'Friday: Open 24 hours', 'Saturday: Open 24 hours', 'Sunday: Open 24 hours']","['tourist_attraction', 'point_of_interest', 'establishment']",4.6,141
ChIJ4TzoziwYQjER8Wp_tOG1pYA,DHC Marina,"367H+PW4, Đ. Trần Hưng Đạo, An Hải Trung, Sơn Trà, Đà Nẵng 550000, Vietnam",16.0642548,108.2298186,"['Monday: Open 24 hours', 'Tuesday: Open 24 hours', 'Wednesday: Open 24 hours', 'Thursday: Open 24 hours', 'Friday: Open 24 hours', 'Saturday: Open 24 hours', 'Sunday: Open 24 hours']","['tourist_attraction', 'point_of_interest', 'establishment']",4.1,172
ChIJ6XD02FMZQjERzT9uC9hB_oY,Quảng trường 2/9,"26RF+F35, Hòa Cường, Hải Châu District, Da Nang, Vietnam",16.0411297,108.2227389,,"['tourist_attraction', 'point_of_interest', 'establishment']",4.5,26
ChIJ75pYOI8ZQjEReb8Mw6ThCZQ,Nhà Thờ Con Gà,"156 Đ. Trần Phú, Hải Châu 1, Hải Châu, Đà Nẵng 550000, Vietnam",16.0666864,108.2232191,"['Monday: 7:00\u202fAM\u2009–\u20096:00\u202fPM', 'Tuesday: 7:00\u202fAM\u2009–\u20096:00\u202fPM', 'Wednesday: 7:00\u202fAM\u2009–\u20096:00\u202fPM', 'Thursday: 7:00\u202fAM\u2009–\u20096:00\u202fPM', 'Friday: 7:00\u202fAM\u2009–\u20096:00\u202fPM', 'Saturday: 7:00\u202fAM\u2009–\u20096:00\u202fPM', 'Sunday: 7:00\u202fAM\u2009–\u20096:00\u202fPM']","['tourist_attraction', 'point_of_interest', 'establishment']",4.6,348
ChIJ9fqsdOcZQjERZcIMEHw3HtY,Sun Wheel,"1 Phan Đăng Lưu, Hoà Cường Bắc, Hải Châu, Đà Nẵng, Vietnam",16.0404534,108.2283843,"['Monday: 3:00\u2009–\u20099:00\u202fPM', 'Tuesday: 3:00\u2009–\u20099:00\u202fPM', 'Wednesday: 3:00\u2009–\u20099:00\u202fPM', 'Thursday: 3:00\u2009–\u20099:00\u202fPM', 'Friday: 3:00\u2009–\u200910:00\u202fPM', 'Saturday: 3:00\u2009–\u200910:00\u202fPM', 'Sunday: 3:00\u2009–\u200910:00\u202fPM']","['tourist_attraction', 'point_of_interest', 'establishment']",4.5,4135
ChIJB7NiEoP2QTERm1eL-dZuTKY,Giếng Trời,"Hòa Ninh, Hòa Vang, Da Nang, Vietnam",16.0347599,107.9909156,,"['tourist_attraction', 'point_of_interest', 'establishment']",4.3,83
ChIJDcx-OTIYQjERP4eyjItPspA,Han Market,"119 Đ. Trần Phú, Hải Châu 1, Hải Châu, Đà Nẵng 550000, Vietnam",16.0682581,108.224269,"['Monday: 6:00\u202fAM\u2009–\u20097:00\u202fPM', 'Tuesday: 6:00\u202fAM\u2009–\u20097:00\u202fPM', 'Wednesday: 6:00\u202fAM\u2009–\u20097:00\u202fPM', 'Thursday: 6:00\u202fAM\u2009–\u20097:00\u202fPM', 'Friday: 6:00\u202fAM\u2009–\u20097:00\u202fPM', 'Saturday: 6:00\u202fAM\u2009–\u20097:00\u202fPM', 'Sunday: 6:00\u202fAM\u2009–\u20097:00\u202fPM']","['tourist_attraction', 'point_of_interest', 'establishment']",3.8,20276
ChIJH5FAHiEYQjERi-kdX4gd-eE,Da Nang Food Tour,"4 Trần Quốc Toản, Hải Châu 1, Hải Châu, Đà Nẵng 550000, Vietnam",16.0661013,108.2243619,"['Monday: 8:00\u202fAM\u2009–\u20099:00\u202fPM', 'Tuesday: 8:00\u202fAM\u2009–\u20099:00\u202fPM', 'Wednesday: 8:00\u202fAM\u2009–\u20099:00\u202fPM', 'Thursday: 8:00\u202fAM\u2009–\u20099:00\u202fPM', 'Friday: 8:00\u202fAM\u2009–\u20099:00\u202fPM', 'Saturday: 8:00\u202fAM\u2009–\u20099:00\u202fPM', 'Sunday: 8:00\u202fAM\u2009–\u20099:00\u202fPM']","['tourist_attraction', 'point_of_interest', 'establishment']",4.3,55
ChIJL710Z-gZQjERTwK6WEaLM1c,Children's cultural houses,"2a Phan Đăng Lưu, Hoà Cường Bắc, Hải Châu, Đà Nẵng, Vietnam",16.0387805,108.2254072,"['Monday: 8:00\u202fAM\u2009–\u20096:00\u202fPM', 'Tuesday: 8:00\u202fAM\u2009–\u20096:00\u202fPM', 'Wednesday: 8:00\u202fAM\u2009–\u20096:00\u202fPM', 'Thursday: 8:00\u202fAM\u2009–\u20096:00\u202fPM', 'Friday: 8:00\u202fAM\u2009–\u20096:00\u202fPM', 'Saturday: 8:00\u202fAM\u2009–\u20096:00\u202fPM', 'Sunday: 8:00\u202fAM\u2009–\u20096:00\u202fPM']","['tourist_attraction', 'point_of_interest', 'establishment']",4.4,1273
ChIJTdEIjH4ZQjERMQ5qnTUbHFU,Nguyen Van Troi Walking Bridge,"Nguyễn Văn Trỗi Bridge, Bắc Mỹ Phú, Sơn Trà, Đà Nẵng 550000, Vietnam",16.0510826,108.2290629,"['Monday: Open 24 hours', 'Tuesday: Open 24 hours', 'Wednesday: Open 24 hours', 'Thursday: Open 24 hours', 'Friday: Open 24 hours', 'Saturday: Open 24 hours', 'Sunday: Open 24 hours']","['tourist_attraction', 'point_of_interest', 'establishment']",4.8,67
ChIJUfrVJSQeQjER-2Dgu0fSCj4,Trại Điên Homestay,"Unnamed Road,, 3373+CPM, Hoà Ninh, Hòa Vang, Đà Nẵng, Vietnam",16.0635848,108.0543107,,"['lodging', 'point_of_interest', 'establishment']",4.3,62
ChIJZWmMe1g9QjERrOGO9nVdagQ,Khu nghỉ mát Du lịch sinh thái Tiên Sa,"Cảng Tiên Sa, Thọ Quang, Sơn Trà, Đà Nẵng, Vietnam",16.1232445,108.219924,"['Monday: Open 24 hours', 'Tuesday: Open 24 hours', 'Wednesday: Open 24 hours', 'Thursday: Open 24 hours', 'Friday: Open 24 hours', 'Saturday: Open 24 hours', 'Sunday: Open 24 hours']","['lodging', 'point_of_interest', 'establishment']",4.2,25
ChIJb7mLMCQfQjERjYQ7zrWaC88,Cafe New Life 424,"424 Âu Cơ, Hoà Khánh Bắc, Liên Chiểu, Đà Nẵng, Vietnam",16.0788079,108.1275156,,"['cafe', 'point_of_interest', 'food', 'establishment']",4,32
ChIJbXijvbsiQjERMySlPYOp8dA,Navy Hotel Danang,"3A Yết Kiêu, Thọ Quang, Sơn Trà, Đà Nẵng 550000, Vietnam",16.1241798,108.2218322,"['Monday: Open 24 hours', 'Tuesday: Open 24 hours', 'Wednesday: Open 24 hours', 'Thursday: Open 24 hours', 'Friday: Open 24 hours', 'Saturday: Open 24 hours', 'Sunday: Open 24 hours']","['lodging', 'point_of_interest', 'establishment']",4.1,229
ChIJbbs1ZTQYQjERi3OdfmnRk2g,Hai Chau Village Hall,"3699+3MQ, K48 Phan Châu Trinh, Hải Châu 1, Hải Châu, Đà Nẵng 550000, Vietnam",16.0677019,108.2192454,,"['tourist_attraction', 'point_of_interest', 'establishment']",4.4,34
ChIJiVEp-zsZQjERKKgVAGERFrE,Dragon Bridge,"27 Cầu Rồng, An Hải Trung, Sơn Trà, Đà Nẵng 550000, Vietnam",16.0611087,108.2274955,,"['tourist_attraction', 'point_of_interest', 'establishment']",4.6,58
ChIJkatEeMwZQjERnAUKgmrbNgQ,Da Nang Fresco Village,"Kiệt 75 Nguyễn Văn Linh, Phước Ninh, Hải Châu, Đà Nẵng 550000, Vietnam",16.0607217,108.2200138,"['Monday: Open 24 hours', 'Tuesday: Open 24 hours', 'Wednesday: Open 24 hours', 'Thursday: Open 24 hours', 'Friday: Open 24 hours', 'Saturday: Open 24 hours', 'Sunday: Open 24 hours']","['tourist_attraction', 'point_of_interest', 'establishment']",4.1,580
ChIJu6FQjzUYQjER39TMpgQVRUs,Con Market,"290 Hùng Vương, Vĩnh Trung, Hải Châu, Đà Nẵng 550000, Vietnam",16.0680564,108.2143082,"['Monday: 7:00\u202fAM\u2009–\u20097:00\u202fPM', 'Tuesday: 7:00\u202fAM\u2009–\u20097:00\u202fPM', 'Wednesday: 7:00\u202fAM\u2009–\u20097:00\u202fPM', 'Thursday: 7:00\u202fAM\u2009–\u20097:00\u202fPM', 'Friday: 7:00\u202fAM\u2009–\u20097:00\u202fPM', 'Saturday: 7:00\u202fAM\u2009–\u20097:00\u202fPM', 'Sunday: 7:00\u202fAM\u2009–\u20097:00\u202fPM']","['tourist_attraction', 'point_of_interest', 'establishment']",4.2,13289
